MetroShort,post_net,post_bus,post_pop,post_temp,post_perm,pre_net,pre_bus,pre_pop,pre_temp,pre_perm,2010 Population,2019 Population,area,land_area,estab_count,density,density2019,AREA,Msa,MsaName,end,teleworkable_manual_emp,teleworkable_manual_wage,wfh_emp,wfh_wage,MetroState,price_level,cbd_lon,cbd_lat
"Abilene, TX",-3.739764825161724,-5.589268604279782,-5.1205629208406345,-5.1205629208406345,-3.759050484345555,-1.340077803859336,-0.35132545512615776,-1.8373723013852614,-1.8373723013852614,-1.2678943366284259,175821,181482,4120.11506023166,4100.407825868726,6262,42.87890557880056,44.25949995877559,10180,"Abilene, TX",Abilene,TX,0.27246296,0.30905688,0.32867125,0.3575404,TX,139796.16927634718,-99.733101,32.448601
"Akron, OH",-0.8144011085949312,-0.5367731782030746,-1.1110742169773522,-1.1110742169773522,-0.2571152181660812,-0.3835145204242235,0,-0.5099470274027489,-0.5099470274027489,-0.17100430997270571,900018,903486,1281.2687613899614,1255.736540926641,35583,716.725181331311,719.4869071288583,10420,"Akron, OH",Akron,OH,0.31823412,0.39422074,0.36687246,0.44169754,OH,149661.87569786998,-81.518898,41.0811
"Albany, GA",-0.7626772639429489,-1.4792338327327896,-0.9839679904189009,-0.9839679904189009,-0.8356242684885271,-0.575954707531506,-0.4361843352930021,-0.734369471134217,-0.734369471134217,-0.5536351016630828,189181,183695,3117.818735907336,3079.036891891892,5273,61.44161523305396,59.65988926073891,10500,"Albany, GA",Albany,GA,0.27158603,0.31853243999999997,0.31485352,0.36687845,GA,98249.67819335844,-84.151604,31.5786
"Albany, NY",-2.031738947950038,-2.853958848631459,-2.4342933647853875,-2.4342933647853875,-1.2827337785499116,-0.9168911344522188,-0.9431654480715392,-1.1205750625587734,-1.1205750625587734,-0.5868570791029789,932389,941115,3459.153245559846,3395.5572884169883,36791,274.5908611763345,277.1606897078001,10580,"Albany-Schenectady-Troy, NY",Albany-Schenectady-Troy,NY,0.36932078,0.44743568,0.424283,0.49190852,NY,233281.7558281499,-73.750999,42.6525
"Albuquerque, NM",-1.1662890665380243,-2.507912584777694,-1.6491506150718445,-1.6491506150718445,-1.2100074084283794,-0.3176579028979015,-0.6812358703843255,-0.44886676889149235,-0.44886676889149235,-0.3017211674304814,902666,928672,11753.961532818534,11738.836901930505,33175,76.89569312029138,79.11107444105266,10740,"Albuquerque, NM",Albuquerque,NM,0.3213281,0.41661993,0.35720241,0.44349107,NM,206967.55061959237,-106.65,35.085602
"Alexandria, LA",-1.9102123312499313,-1.9519778891000175,-2.3990245724265957,-2.3990245724265957,-1.8355174269802388,-0.6678603205290157,0.03454828122300915,-0.8190076562276877,-0.8190076562276877,-0.6393005041906038,183492,182074,3301.73151003861,3210.5124343629345,5789,57.1534930175128,56.71181897668904,10780,"Alexandria, LA",Alexandria,LA,0.25201264,0.28886458,0.30110911,0.33358815000000003,LA,141860.6430449491,-92.444702,31.311001
"Allentown, PA",-0.5627362966386266,-2.0207080828323316,-0.6974763887728062,-0.6974763887728062,-0.45811434667820394,-0.4562460975717679,-0.5177020708082832,-0.5467283516634791,-0.5467283516634791,-0.3481826360994892,1003571,1016995,2144.4967822393824,2111.092347876448,35928,475.37996194694847,481.73875530504256,10900,"Allentown-Bethlehem-Easton, PA-NJ",Allentown-Bethlehem-Easton,PA-NJ,0.26702428,0.33526921,0.32324323,0.38200048,PA,215466.6217024752,-75.4729,40.602001
"Altoona, PA",-1.3241827704533142,0.2521823472356935,-1.4620913852266568,-1.4620913852266568,-0.9535849738125339,-0.8257178977785804,-0.09699321047526674,-1.1036301246162183,-1.1036301246162183,-0.6321112515802781,143137,138425,727.0263648648648,725.4472216216217,5155,197.3086335351041,190.81332986646908,11020,"Altoona, PA",Altoona,PA,0.22866811,0.27055547,0.28467274,0.32292062,PA,140468.17640583983,-78.402199,40.516602
"Amarillo, TX",-2.194684265410877,-1.2843137254901962,-3.2059119399520233,-3.2059119399520233,-2.1500978322149877,-0.9713209744162309,-0.411764705882353,-1.4275396763983004,-1.4275396763983004,-0.9632143501987966,259360,271383,4416.158123938224,4382.724571428572,10200,59.17780042368947,61.921071145828655,11100,"Amarillo, TX",Amarillo,TX,0.27327612,0.32389587,0.32019514,0.36323431,TX,143841.12023274563,-101.837,35.207401
"Ames, IA",-6.610617606967405,-5.324137931034483,-6.924223988875573,-6.924223988875573,-5.373756964202399,-3.937461691169071,-3.310344827586207,-4.2854659726097575,-4.2854659726097575,-3.338242962610581,99628,109309,901.3906247104248,895.118032046332,3625,111.30152274135304,122.11685619840364,11180,"Ames, IA",Ames,IA,0.30733138,0.40163776,0.36483634,0.45461854,IA,204708.11784173956,-93.616971,42.026025
"Anchorage, AK",-2.2888380091583516,-1.5697429414243573,-3.176603211421944,-3.176603211421944,-1.6864464396408647,-0.8723429782639125,-0.5109565950273915,-1.1301465736167489,-1.1301465736167489,-0.6631306364854327,382192,400072,16546.50408030888,16210.489195752896,18984,23.57683320871854,24.67982274741084,11260,"Anchorage, AK",Anchorage,AK,0.31688967,0.39055315,0.37114996,0.44523495,AK,328810.7327666055,-149.894798,61.2165
"Ann Arbor, MI",-4.041732935597593,-3.2009091339552063,-4.741569492593759,-4.741569492593759,-3.0083040772799565,-1.6041967472643452,-0.8144325015388986,-1.9327868131545962,-1.9327868131545962,-1.2831741657443985,518465,545756,1092.2275621621625,1062.044932046332,21119,488.1761443002506,513.8727972162587,11460,"Ann Arbor, MI",Ann Arbor,MI,0.39217666,0.47228894,0.4488267,0.4869498,MI,320773.9768899632,-83.745903,42.280201
"Anniston, AL",-0.5387713997985901,0.4829621679635095,-0.8707380233059993,-0.8707380233059993,-0.5308588692274493,-0.6365990504963315,0,-0.9148323982160841,-0.9148323982160841,-0.6294058408862034,142430,139020,904.7189733590734,891.5877745173746,3727,159.74871355442127,155.9240760958762,11500,"Anniston-Oxford-Jacksonville, AL",Anniston-Oxford-Jacksonville,AL,0.20440839,0.24566156,0.24739432,0.283943,AL,120434.78155092684,-85.8302,33.657902
"Appleton, WI",-1.8536691993997947,-4.326515793295414,-2.3255909267890607,-2.3255909267890607,-0.9538165183989361,-0.9706659866160575,-1.7245552462785914,-1.1803052486093497,-1.1803052486093497,-0.590186778632142,417537,439183,1846.101988030888,1822.5607714285711,16526,229.09359542108623,240.97029129830153,11540,"Appleton, WI",Appleton,WI,0.29332155,0.35994455,0.32069758,0.38529652,WI,205926.8021925995,-88.409599,44.261902
"Asheville, NC",1.9541956768708446,1.6588199058388702,2.162851093429393,2.162851093429393,0.8709057725309255,0.31486928781538714,0.4884058608703304,0.278040047710111,0.278040047710111,0.13432097042540062,428985,458603,2103.551106949807,2094.9866706563707,22727,204.76741260869056,218.9049727253478,11700,"Asheville, NC",Asheville,NC,0.22882566,0.26964962,0.27794152,0.31634319,NC,275768.8205784874,-82.5532,35.5951
"Athens, GA",-1.3773404832364067,-2.622144832530984,-1.6053294700054244,-1.6053294700054244,-1.31039596822367,-0.802304264537259,-1.2496158967530473,-0.9243149344630364,-0.9243149344630364,-0.7422258536283927,265878,291286,1585.5511046332049,1570.0734583011583,9763,169.34112133051644,185.52380365385935,12020,"Athens-Clarke County, GA",Athens-Clarke County,GA,0.27503628,0.33523348,0.34712631,0.40519637,GA,213989.93263191293,-83.3731,33.959499
"Atlanta, GA",-0.09697792620658727,-1.3862284691976092,-0.3430419419546843,-0.3430419419546843,-0.31035265986257027,-0.13936000891904057,-0.5318773037168182,-0.2306470547614115,-0.2306470547614115,-0.2055206531533218,5430554,6009615,10367.38131158301,10192.647372972971,268859,532.7913152769088,589.6029539818296,12060,"Atlanta-Sandy Springs-Roswell, GA",Atlanta-Sandy Springs-Roswell,GA,0.35666603,0.49576303,0.40385821,0.53915775,GA,238978.65581588383,-84.389099,33.756199
"Atlantic City, NJ",0.43624151791024546,0.7515628292477348,0.5663394163713668,0.5663394163713668,-0.013001491022055509,-0.2334735834598904,-0.5057245206152982,-0.23361189719416756,-0.23361189719416756,-0.27635084108581814,372075,361497,865.0731150579151,810.7232498069499,14237,458.9420620274537,445.8944529913013,12100,"Atlantic City-Hammonton, NJ",Atlantic City-Hammonton,NJ,0.23016249,0.30331406,0.31230041,0.36562926,NJ,223157.95658645328,-74.429901,39.361401
"Auburn, AL",-1.7879205963510565,-0.06606110652353427,-1.9656315637741444,-1.9656315637741444,-1.7549730241752812,-0.795889790371072,0.7927332782824111,-0.9021457106379475,-0.9021457106379475,-0.7207281413450847,174533,194248,728.228113899614,719.6475193050193,6055,242.52567446984415,269.92103048946785,12220,"Auburn-Opelika, AL",Auburn-Opelika,AL,0.22107916,0.28251991,0.28019658,0.33848035,AL,223115.9276985076,-85.480901,32.60824
"Augusta, GA",0.3849716291631965,0.9273318872017353,0.19116262054686836,0.19116262054686836,0.1804213983825899,-0.22649968476847995,0.4880694143167028,-0.396102026043572,-0.396102026043572,-0.24844913875635327,607613,642385,4687.245382239382,4594.418318532818,18440,132.25025626182753,139.8185701569158,12260,"Augusta-Richmond County, GA-SC",Augusta-Richmond County,GA-SC,0.26595157,0.33461559,0.30150679,0.35787222,GA,152113.27993910003,-81.965797,33.475899
"Austin, TX",0.3451990830204483,-1.8067572721980205,0.196584838977509,0.196584838977509,0.5403235879763996,0.4810836229509401,0.1997470539818923,0.5612412655493427,0.5612412655493427,0.49274792614199964,1775659,2177584,5870.20088030888,5793.022355212355,99626,306.5168561627119,375.8977380849717,12420,"Austin-Round Rock, TX",Austin-Round Rock,TX,0.39755037,0.52127868,0.45512399,0.57666129,TX,313189.053620816,-97.746995,30.264924
"Bakersfield, CA",-1.667557587954145,-2.957135105805752,-2.1233199770007545,-2.1233199770007545,-1.5963587522909404,-0.606200812160851,-0.9133658889491771,-0.7988194918604233,-0.7988194918604233,-0.5980028389693464,843086,890464,6608.706251351351,6577.331714671815,22116,128.1805504988229,135.38377546227056,12540,"Bakersfield, CA",Bakersfield,CA,0.24432419,0.31218782,0.29072604,0.35714224,CA,230207.4937550361,-119.019,35.377701
"Baltimore, MD",-1.0454657330846613,-2.70438425484259,-1.2705659435362378,-1.2705659435362378,-1.1077854479264515,-0.38438660070113184,-0.9058857688000332,-0.46749239121796177,-0.46749239121796177,-0.4106799185922466,2769977,2856239,3036.3087976833976,2854.2763447876446,120545,970.4655980695112,1000.6876191984492,12580,"Baltimore-Columbia-Towson, MD",Baltimore-Columbia-Towson,MD,0.35200542,0.46967423,0.4155007,0.52644682,MD,297783.08291631675,-76.613998,39.2901
"Bangor, ME",-1.8178290813851976,-2.3587223587223587,-2.1435638762246576,-2.1435638762246576,-1.5662689559284768,-1.0786691240663497,0.2457002457002457,-1.3008697901510007,-1.3008697901510007,-0.885310570052058,156762,154635,4740.369784555985,4518.916962548263,6105,34.69017052077017,34.219482517952656,70750,"Bangor, ME",Bangor,ME,0.26170117,0.29610863,0.31269535,0.34144187,ME,160326.36203730578,-68.769997,44.800098
"Barnstable Town, MA",3.3996694765786657,-1.9148777021467573,3.961744460029349,3.961744460029349,1.0378620597071582,-0.520782701681781,-0.8153190216171742,-0.8462140254882629,-0.8462140254882629,-0.044903041833895777,217878,216021,492.18945405405407,399.1644420849421,13369,545.8351922880837,541.1829742941652,70900,"Barnstable Town, MA",Barnstable Town,MA,0.24421783,0.29427299,0.31125712,0.35548064,MA,452055.78513216093,-70.283425,41.652944
"Baton Rouge, LA",-0.9882469440611377,-1.2518114266333673,-1.124339050186115,-1.124339050186115,-0.9880249159901285,-0.35613302589846435,-0.169580365676934,-0.4371732718167558,-0.4371732718167558,-0.3531356469398426,865501,900787,4430.112434749035,4307.941427413128,32433,200.9082562015529,209.09917536666993,12940,"Baton Rouge, LA",Baton Rouge,LA,0.25683343,0.32415456,0.30453247,0.35679933,LA,193836.45788083883,-91.188202,30.452801
"Battle Creek, MI",-4.091312414293781,-2.6366149266425687,-4.804603264230593,-4.804603264230593,-3.037293968970988,-1.9192815466107391,-1.3608335105251965,-2.2154284638756687,-2.2154284638756687,-1.4369067785216854,187632,185955,1311.3389455598456,1292.431537065637,4703,145.17751588297168,143.87996165908797,12980,"Battle Creek, MI",Battle Creek,MI,0.26593491,0.33650032,0.29806584,0.35238397,MI,113546.55557199148,-85.182701,42.319
"Bay City, MI",-2.090648678617631,-2.2357019064124786,-2.9117191831454443,-2.9117191831454443,-0.8853492884864166,-1.2116521899833672,-0.901213171577123,-1.5469645167251893,-1.5469645167251893,-0.7438551099611902,177511,173152,950.533540926641,909.9490227799228,5770,195.07796102434216,190.28758278240161,13020,"Bay City, MI",Bay City,MI,0.20659722,0.24416237,0.26032704,0.29734078,MI,108191.36390282011,-83.888901,43.5961
"Beaumont, TX",-1.9119892829916836,-0.34086405073325404,-2.4839824639744212,-2.4839824639744212,-1.917416865472434,-0.8721138213387873,-0.5628220372572335,-1.1048337556156977,-1.1048337556156977,-0.8432489508729774,400638,405337,2266.3438073359075,2157.631761776062,12615,185.68414087036496,187.8619916432568,13140,"Beaumont-Port Arthur, TX",Beaumont-Port Arthur,TX,0.25647792,0.30148351,0.30156973,0.33036759,TX,147181.61930188752,-94.095497,30.0819
"Bellingham, WA",-1.3842242007540952,-1.2722646310432568,-1.8217499445518204,-1.8217499445518204,-0.8075631317131904,-0.4059598872025601,-0.19276736833988742,-0.5400256645860397,-0.5400256645860397,-0.2732803143119673,230247,252488,2684.3789494208495,2598.5632795366796,12969,88.60550051375033,97.16446083430311,13380,"Bellingham, WA",Bellingham,WA,0.28736007,0.34359622,0.33680251,0.37612796,WA,416400.8270916372,-122.482,48.749298
"Bend, OR",2.431383195330528,1.0487200660611065,2.6146328220442516,2.6146328220442516,2.4053210261979094,0.685217863445093,0.3550784475639967,0.7698656169404098,0.7698656169404098,0.8356182978145785,156757,184175,1434.938323166023,1410.091203088803,12110,111.16798662144971,130.61211898674702,13460,"Bend-Redmond, OR",Bend-Redmond,OR,0.2822699,0.33889672,0.33221695,0.3842653,OR,424328.1840709289,-121.315829,44.057305
"Billings, MT",-3.13291121237463,-2.870680044593088,-4.5231227848605355,-4.5231227848605355,-2.7346838928427175,-1.9353847729250935,-1.309921962095875,-2.6367768618549428,-2.6367768618549428,-1.7254620859146999,163974,175779,5276.942522007722,5245.556185714286,10764,31.259602260398193,33.51007858398608,13740,"Billings, MT",Billings,MT,0.27161101,0.31679907,0.33685398,0.37885228,MT,269067.7483869488,-108.508,45.782902
"Binghamton, NY",-3.3244847504357833,-1.4143730886850152,-4.039321127605679,-4.039321127605679,-2.305188763439023,-1.377796512974757,-0.0891946992864424,-1.6514949547886781,-1.6514949547886781,-0.9733441187305132,273395,263319,1669.2477953667951,1651.9662718146717,7848,165.49672028090367,159.3973221443233,13780,"Binghamton, NY",Binghamton,NY,0.30214229,0.36203703,0.34981284,0.39644367,NY,120724.46778470588,-75.9104,42.101101
"Birmingham, AL",-0.955428668825635,-1.2021961378265809,-1.2398926197375149,-1.2398926197375149,-0.9836372933356059,-0.3687574569626726,-0.1964218099204847,-0.45793420828362025,-0.45793420828362025,-0.3391852735640021,1152021,1173400,6054.923454054054,5959.892784169884,42256,193.29559133343668,196.8827364003387,13820,"Birmingham-Hoover, AL",Birmingham-Hoover,AL,0.29884958,0.38673604,0.34709781,0.44548419,AL,175753.8002819586,-86.810699,33.517399
"Bismarck, ND",-6.720449075271852,-5.15385781415795,-8.711103793776607,-8.711103793776607,-5.359424857507977,-2.973712475793996,-2.1979687736850084,-3.9062806250049,-3.9062806250049,-2.451568392250943,110483,127551,4612.329762934363,4553.266646718147,6597,24.26455742046926,28.01307498473317,13900,"Bismarck, ND",Bismarck,ND,0.31134871,0.37883413,0.37784684,0.42710263,ND,273243.05044371815,-100.786,46.810799
"Blacksburg, VA",-4.168248123495256,-0.7494429815677537,-4.523042062030874,-4.523042062030874,-3.7892649766322046,-2.2823962611528112,-0.18229694146242656,-2.6546948024359156,-2.6546948024359156,-2.1152811216541565,171947,176525,1425.2716243243244,1407.226432046332,4937,122.1885803764797,125.44178817285604,13980,"Blacksburg-Christiansburg-Radford, VA",Blacksburg-Christiansburg-Radford,VA,0.24917877,0.33297387,0.29663071,0.35563603,VA,184857.0129383573,-80.412496,37.227883
"Bloomington, IL",-2.4173229553689612,-3.391684901531729,-2.8922528121183007,-2.8922528121183007,-1.7570309345789614,-0.892314139550572,0.437636761487965,-1.086057719335006,-1.086057719335006,-0.6240066233626853,192963,195671,1774.8556868725868,1769.559994980695,6398,109.04575179555025,110.57607572222194,14010,"Bloomington, IL",Bloomington,IL,0.31589025,0.40556529,0.39406082,0.45647529,IL,169941.92581364186,-88.994301,40.479099
"Bloomington, IN",-16.144089173846893,-9.3906720160481445,-23.136497797269328,-23.136497797269328,-15.287626175352456,-6.02702069255918,-4.551153460381144,-8.285326119340729,-8.285326119340729,-5.716771341063747,245172,251733,2047.91046023166,2014.583835907336,7976,121.6985839110431,124.95533594243474,14020,"Bloomington, IN",Bloomington,IN,0.24744318,0.3343347,0.31074828,0.39239019,IN,204636.61120511912,-86.532997,39.167301
"Boise City, ID",0.07857422986207392,0.13337873886145638,-0.1935770745529968,-0.1935770745529968,0.38085716337363773,0.009528333673959754,-0.4058119075997502,-0.09734090444600335,-0.09734090444600335,0.1720623733007805,629930,724156,13028.570476447878,12955.14931119691,35238,48.623908908217864,55.89715584166402,14260,"Boise City, ID",Boise City,ID,0.31831571,0.3940745,0.36559424,0.43833736,ID,294668.02562564425,-116.209,43.617199
"Boston, MA",-3.2364759094070807,-4.342595144658381,-3.6637930238271603,-3.6637930238271603,-2.5266547254810083,-0.7903390102197914,-0.9467434911384983,-0.8590613751902885,-0.8590613751902885,-0.6913080359992472,4592369,4872213,3749.0872656370657,3521.3595389961392,228573,1304.1465800760525,1383.6170223586312,71650,"Boston-Cambridge-Nashua, MA-NH",Boston-Cambridge-Nashua,MA-NH,0.38872615,0.50142014,0.44353771,0.55328661,MA,496401.3644800437,-71.058701,42.3549
"Boulder, CO",-4.850496384582666,-5.916069600818833,-4.995520321450873,-4.995520321450873,-4.406600964714612,-0.5959329948687319,-0.4776526782668032,-0.6514764839500811,-0.6514764839500811,-0.5481950062896497,395142,441996,1167.7273644787645,1150.4243247104248,29310,343.47500440714504,384.20258552100375,14500,"Boulder, CO",Boulder,CO,0.43129793,0.57092148,0.48474351,0.61478943,CO,576200.1441351316,-105.279,40.017601
"Bowling Green, KY",0.023786317645966767,-2.3423740753786544,-0.032662675206534805,-0.032662675206534805,0.09166434605031096,-0.024946625823818805,-0.8101444170482565,-0.03051610507750857,-0.03051610507750857,0.0052213868003341685,156847,172368,1461.4520965250963,1439.978301158301,5678,108.92316910180811,119.70180374339618,14540,"Bowling Green, KY",Bowling Green,KY,0.23447031,0.28097332,0.28206563,0.32558066,KY,162285.06509947334,-86.443052,36.993065
"Bremerton, WA",-3.6134852637012758,-3.512491933253434,-5.366805131634106,-5.366805131634106,-2.7989786620750343,-1.2666253234987406,-2.3693187056328937,-1.7948593581646404,-1.7948593581646404,-1.0396998347428121,271486,288641,574.2508162162162,493.4719737451737,10847,550.1548506181101,584.9187296481657,14740,"Bremerton-Silverdale, WA",Bremerton-Silverdale,WA,0.28252414,0.34823465,0.31175879,0.34425002,WA,389074.9745056082,-122.628,47.565601
"Bridgeport, CT",0.3541091089027257,0.622938805423232,0.2482268772421756,0.2482268772421756,-0.048863964372603194,-0.28864789080862646,-0.8611212898497619,-0.27367943589955057,-0.27367943589955057,-0.3573048534081069,943826,970040,732.1532513513514,681.782076061776,49122,1384.351441815376,1422.800677898879,71950,"Bridgeport-Stamford-Norwalk, CT",Bridgeport-Stamford-Norwalk,CT,0.36836004,0.51833683,0.4395192,0.58285922,CT,461022.7317944977,-73.191902,41.177898
"Brownsville, TX",2.23502526029495,0.637342908438061,3.16020264604819,3.16020264604819,-0.24896246068859257,0.9174031806128704,0.08976660682226212,1.2942759772363759,1.2942759772363759,-0.11203310730986667,410201,425767,1241.0831876447876,992.7732362934364,11140,413.18700485067865,428.8663155239965,15180,"Brownsville-Harlingen, TX",Brownsville-Harlingen,TX,0.25531706,0.26489711,0.30608734,0.31644228,TX,116349.2274681781,-97.5056,25.895599
"Brunswick, GA",0.8410026294729622,-0.7731472751272864,0.8002029267177317,0.8002029267177317,-0.7759803361152395,-0.5523322281925231,0.58457476899868,-0.8620098319423801,-0.8620098319423801,-1.0346404481536526,135770,139952,1907.1790258687256,1778.7220965250965,5303,76.33008004186807,78.68120617234676,15260,"Brunswick, GA",Brunswick,GA,0.24964367,0.32147658,0.29583165,0.37680805,GA,183637.49773553325,-81.494138,31.149451
"Buffalo, NY",-2.0880017394773303,-2.0573772299278925,-2.4629597350531633,-2.4629597350531633,-1.3588768151751427,-0.7584157099241854,-0.36163972744713224,-0.8977805491213662,-0.8977805491213662,-0.5100729753867552,1117380,1112978,1541.1120007722009,1522.9819756756756,45349,733.6790703017158,730.7886880973913,15380,"Buffalo-Cheektowaga-Niagara Falls, NY",Buffalo-Cheektowaga-Niagara Falls,NY,0.3167901,0.38766649,0.37684783,0.43951178,NY,171888.2317428207,-78.873299,42.884102
"Burlington, NC",2.6283315726986323,0.6327334083239595,3.1320289055707726,3.1320289055707726,2.487169179855846,0.7777954360609148,-0.8014623172103487,0.8806289672708917,0.8806289672708917,0.7665772326561902,199001,213938,860.7195888030889,841.5433308880309,7112,236.4714836371004,254.2210153032095,15500,"Burlington, NC",Burlington,NC,0.19653264,0.2714473,0.24157783,0.32238665,NC,172118.79721918155,-79.436501,36.0942
"Burlington, VT",-6.415357205052981,-9.329710144927535,-8.189482332873402,-8.189482332873402,-6.222900954243638,-2.2308849861797655,-0.7789855072463768,-2.6678187249661747,-2.6678187249661747,-1.9446565482011366,216015,223947,1352.9890355212356,1335.4994432432431,11040,161.74847626698394,167.687827301633,72400,"Burlington-South Burlington, VT",Burlington-South Burlington,VT,0.3598876,0.44955829,0.39019921,0.46076444,VT,329753.95379541704,-73.212806,44.476364
"Canton, OH",-1.7928422358693612,10.192504417371897,-2.7781299912657103,-2.7781299912657103,-1.1588579575910773,-1.0753244067621361,-0.6044824700083697,-1.3474478731596091,-1.3474478731596091,-0.7934326847465559,372957,367517,1318.7162907335908,1307.2977857142855,10753,285.28848138163295,281.12722595884674,15940,"Canton-Massillon, OH",Canton-Massillon,OH,0.24656302,0.28945863,0.30344361,0.33738163,OH,136649.22345414135,-81.373398,40.801998
"Cape Coral, FL",7.008441644784832,18.336338565973694,7.746504602330553,7.746504602330553,-0.16117787849151424,2.4960823958215537,5.656024607551973,2.867375584223208,2.867375584223208,-0.21635365185329708,675632,804701,1117.2913050193051,892.9473320463321,37712,756.6314112296868,901.1740907001744,15980,"Cape Coral-Fort Myers, FL",Cape Coral-Fort Myers,FL,0.23383056,0.29604116,0.28104809,0.34265724,FL,245058.47386354685,-81.952103,26.570601
"Cape Girardeau, MO",-3.057406884773752,-0.6206507429001317,-4.1924465767897585,-4.1924465767897585,-3.0342501935754655,-1.6122846246806908,0.07523039307880384,-2.2426531778940437,-2.2426531778940437,-1.546432784085564,138784,138189,2448.0041285714287,2408.449701158301,5317,57.62379008091981,57.376743194404455,16020,"Cape Girardeau, MO-IL",Cape Girardeau,MO-IL,0.23614335,0.28795466,0.29438105,0.34754267,MO,152776.29319268643,-89.522596,37.303701
"Carson City, NV",-1.6754892914380068,-3.3073406829792957,-2.2356045521506154,-2.2356045521506154,-1.379243358748968,-0.33509785828760136,-1.7477816617370259,-0.26063166755702333,-0.26063166755702333,-0.16512068379389055,61818,61773,134.78498764478763,133.7298640926641,3719,462.26024694951514,461.92374769181146,16180,"Carson City, NV",Carson City,NV,0.32205141,0.42105901,0.37266412,0.46918952,NV,333499.188842482,-119.766845,39.164604
"Casper, WY",0.12924985844063125,-0.4691005506832551,0.1074620251606391,0.1074620251606391,0.46037568625520076,-0.25726876584849456,-0.6322659596165613,-0.3904576675939831,-0.3904576675939831,-0.09478322952312956,76361,81238,6232.025371042471,6199.776769498069,4903,12.316733785591143,13.103375011771108,16220,"Casper, WY",Casper,WY,0.2088577,0.29577693,0.27477163,0.35980937,WY,212143.8203425078,-106.322,42.850399
"Cedar Rapids, IA",-4.614766566290916,-3.729496930266654,-5.956036107801496,-5.956036107801496,-3.5139524582902704,-1.9732934119400216,-1.4111610006414368,-2.5763719831478613,-2.5763719831478613,-1.5670978131362903,279353,291239,2738.8703277992277,2723.727970656371,10913,102.56273864701724,106.92661056376215,16300,"Cedar Rapids, IA",Cedar Rapids,IA,0.34184426,0.4455798,0.38302651,0.47254372,IA,171513.77702465456,-91.6688,41.979301
"Champaign, IL",-5.093549955099317,-6.748971193415638,-5.73567091506768,-5.73567091506768,-4.357425913873075,-1.869351370500663,1.3031550068587106,-2.1482299244515115,-2.1482299244515115,-1.591708615164073,235376,242758,2175.375814285714,2172.3448362934364,7290,108.35112182355464,111.74929318045372,16580,"Champaign-Urbana, IL",Champaign-Urbana,IL,0.31590319,0.38879833,0.38203219,0.43962622,IL,161701.18161235977,-88.243202,40.116001
"Charleston, SC",-0.16408317100562805,-0.44626360819760663,-0.5157389135993604,-0.5157389135993604,-0.7301891461456952,-0.4266416248421667,-0.4348938347403428,-0.6035545008661002,-0.6035545008661002,-0.48806177547381713,677976,788015,3217.342466795367,2934.4360714285713,35181,231.04132565748515,268.54052390937613,16700,"Charleston-North Charleston, SC",Charleston-North Charleston,SC,0.28707051,0.36801305,0.33705798,0.40912122,SC,277122.0047220648,-79.9347,32.783298
"Charleston, WV",-1.2551177719369189,-2.2293357722647764,-1.7266162050141527,-1.7266162050141527,-1.136966740800647,-0.5556889405580268,-0.02286498227963873,-0.7406869187221997,-0.7406869187221997,-0.49882480792559647,330330,316544,3075.197446332046,3052.8887413127413,8747,108.20243644318272,103.68671341225694,16620,"Charleston, WV",Charleston,WV,0.29985622,0.37337601,0.36730754,0.4355419,WV,103028.37372098945,-81.635399,38.351002
"Charlotte, NC",0.7647526981997885,-0.989256241241501,0.7573325624739063,0.7573325624739063,0.6102739420207534,0.23609104304000936,-1.119011781803083,0.3010448490126662,0.3010448490126662,0.18504308696058444,1891743,2172467,3781.6736463320462,3713.88224015444,96335,509.3707548253691,584.9585042065466,16740,"Charlotte-Concord-Gastonia, NC-SC",Charlotte-Concord-Gastonia,NC-SC,0.32954726,0.4663735,0.37868536,0.5115307,NC,233275.8602744135,-80.843002,35.2243
"Charlottesville, VA",-0.5692290380533687,-2.43466817070878,-0.5078826775106028,-0.5078826775106028,-0.5831978488031445,-0.638297046760594,-0.46061289716112047,-0.7840771078353388,-0.7840771078353388,-0.4819239708672691,241467,257717,2521.063824710425,2500.4962814671817,10638,96.56763010993872,103.0663400342203,16820,"Charlottesville, VA",Charlottesville,VA,0.31150833,0.4031747,0.37483799,0.47524747,VA,320369.5802586312,-78.4832,38.0308
"Chattanooga, TN",-0.29115856717874145,-0.5342351614958585,-0.6934390519901752,-0.6934390519901752,-0.2900779150206019,-0.27417689040797705,-0.269568200754791,-0.44646372019136804,-0.44646372019136804,-0.23635406487309282,617809,647757,2816.9416864864866,2759.211157915058,20403,223.90783620447337,234.76166299989325,16860,"Chattanooga, TN-GA",Chattanooga,TN-GA,0.27364412,0.35716042,0.31837744,0.39439443,TN,189132.17684510423,-85.310501,35.0481
"Cheyenne, WY",-1.186747478034494,-3.769284712482469,-1.8871013667425967,-1.8871013667425967,-0.660999023755288,-0.33456719817767655,-0.0876577840112202,-0.5821876016921576,-0.5821876016921576,-0.21151968760169215,91757,98336,2704.7441884169884,2703.091316988417,5704,33.945209110518995,36.379089149514435,16940,"Cheyenne, WY",Cheyenne,WY,0.29543009,0.36313167,0.3659654,0.43445104,WY,294456.17177578725,-104.822619,41.135514
"Chicago, IL",-2.6009263708934736,-3.4558329205293328,-3.1128187556810674,-3.1128187556810674,-2.2025687443936666,-0.7627705857965122,-0.8556100063689761,-0.9238907577525888,-0.9238907577525888,-0.7013650642268564,9658114,9701082,8746.601874131275,8595.591525868726,452192,1123.6124903019852,1128.6113318442674,16980,"Chicago-Naperville-Elgin, IL-IN-WI",Chicago-Naperville-Elgin,IL-IN-WI,0.33973619,0.44786832,0.39180052,0.49589816,IL,244942.05324958503,-87.626099,41.878201
"Chico, CA",-2.810317075237017,-1.9623233908948194,-3.4304121130904246,-3.4304121130904246,-2.8268755342991154,-4.720316074027864,-5.595424983180085,-6.491763129317715,-6.491763129317715,-4.515453278189814,251601,259686,1785.1164702702702,1743.8706235521236,8918,144.2773314728527,148.91356990178582,17020,"Chico, CA",Chico,CA,0.27392867,0.30926758,0.31886956,0.34933722,CA,333341.8145441862,-121.837702,39.729181
"Cincinnati, OH",-1.0547208059003896,-1.0296437764676576,-1.4026382971300848,-1.4026382971300848,-0.7914143832586953,-0.3747755769587776,-0.4816075728639044,-0.48372380069946475,-0.48372380069946475,-0.27613949592186526,2346068,2407841,6631.198608108108,6541.125718532819,84301,358.66425764497086,368.1080449467467,17140,"Cincinnati, OH-KY-IN",Cincinnati,OH-KY-IN,0.31457672,0.41423383,0.36198092,0.45618263,OH,193876.16016534585,-84.5093,39.100498
"Clarksville, TN",-2.3816518381735774,-3.605109227647129,-3.8366327729681764,-3.8366327729681764,-2.1076644523849493,-1.1609990647257726,-1.8144920615972306,-1.7781901244634164,-1.7781901244634164,-1.0219070001678698,308656,333592,2434.9617934362936,2374.3385965250964,8377,129.9966232498287,140.4989164090666,17300,"Clarksville, TN-KY",Clarksville,TN-KY,0.25851533,0.30154297,0.29801679,0.34227738,TN,169607.27606486005,-87.3563,36.527199
"Cleveland, OH",-1.3574116093304176,-1.9402786351477301,-1.6513940289112115,-1.6513940289112115,-0.9538498567193777,-0.48260781018248994,-0.9029618601498481,-0.5845139670320854,-0.5845139670320854,-0.3255442709351195,1967540,1944436,1784.5769525096523,1748.249783011583,82617,1125.4341451200764,1112.2186422643,17460,"Cleveland-Elyria, OH",Cleveland-Elyria,OH,0.31750074,0.4021273,0.3654854,0.44317737,OH,158860.24570392317,-81.689697,41.501301
"Cleveland, TN",1.73287123433751,7.046799354491662,1.700647943157187,1.700647943157187,1.7201210112086054,0.2364586834815064,-0.591715976331361,0.24828161765558168,0.24828161765558168,0.2665955745134631,81237,86273,600.0551374517374,592.6168162162162,1859,137.08183395585704,145.57973658399072,17420,"Cleveland, TN",Cleveland,TN,0.24982542,0.30903992,0.31311727,0.36334869,TN,175369.654640513,-84.874184,35.159825
"College Station, TX",-3.297952149982545,-0.5308481774212576,-3.8023382777856183,-3.8023382777856183,-3.054319648812663,-1.7563080762688574,0,-2.137875197765712,-2.137875197765712,-1.6348632166917973,238762,269258,2521.4346841698843,2483.046252123552,8477,96.15688785329948,108.43857611179212,17780,"College Station-Bryan, TX",College Station-Bryan,TX,0.35233587,0.42978448,0.42090797,0.45651954,TX,229535.5408227284,-96.326878,30.621315
"Colorado Springs, CO",-2.7247113239198057,-4.904462378352718,-3.55979544307096,-3.55979544307096,-2.414048631129786,-0.7704814796718837,-1.0325183954426773,-1.031660722138076,-1.031660722138076,-0.6586483390607102,657015,736812,3733.320384169884,3722.0163297297295,33704,176.5212567048862,197.9604426006113,17820,"Colorado Springs, CO",Colorado Springs,CO,0.36108276,0.4663882,0.40308225,0.50151491,CO,324964.626928713,-104.825,38.832298
"Columbia, MO",-4.29703277924499,-2.510016497761018,-4.978095386049401,-4.978095386049401,-3.9407591528144583,-2.0123245818445445,-0.7895357058684892,-2.354564755838641,-2.354564755838641,-1.8668116617471908,178570,193110,1482.225218146718,1466.1362795366797,8486,121.79631763592312,131.71354034089217,17860,"Columbia, MO",Columbia,MO,0.27529389,0.35276058,0.33865142,0.40644845,MO,197917.33590261225,-92.330597,38.9519
"Columbia, SC",0.2507889282686538,-1.9320366207278532,0.3252029733626739,0.3252029733626739,0.20542983736994966,-0.2519314746388982,-0.12054865930342423,-0.3335892637202681,-0.3335892637202681,-0.2438193954101627,821713,875238,4630.5428918918915,4483.216555212355,30693,183.28648413038303,195.22545681680617,17900,"Columbia, SC",Columbia,SC,0.3102341,0.39495081,0.36856678,0.44911692,SC,162841.41326241326,-81.0355,34.005798
"Columbus, GA",-2.7824207060142325,-3.76150909499214,-4.18484081150601,-4.18484081150601,-2.7977673909634717,-0.9141286252372897,-1.1902088479676622,-1.3460710818412018,-1.3460710818412018,-0.904787164833405,288095,299739,1844.509145173745,1806.9060324324323,8906,159.44105273264844,165.88521739367678,17980,"Columbus, GA-AL",Columbus,GA-AL,0.3130503,0.4157635,0.3517563,0.45372504,GA,125448.84201999774,-84.991707,32.464727
"Columbus, IN",-4.695510516985291,-4.776247848537006,-6.477808122913771,-6.477808122913771,-4.22036957181416,-1.6418315685241085,-1.1833046471600688,-2.256160861163017,-2.256160861163017,-1.4509766342452846,116889,125226,729.4428965250966,724.3249976833977,4648,161.37645445600396,172.88648106928412,18020,"Columbus, IN",Columbus,IN,0.23739773,0.30602479,0.26334548,0.3350988,IN,173444.99018572833,-85.920826,39.19954
"Columbus, OH",-1.3637259909487214,-2.9087500165044826,-1.6900661622340742,-1.6900661622340742,-1.0186370817347097,-0.5304381911696581,-0.8371073583585301,-0.6637224274531697,-0.6637224274531697,-0.41312791761198286,1927792,2104675,4782.868472200772,4730.512099227799,75737,407.5228980631272,444.91483286631137,18140,"Columbus, OH",Columbus,OH,0.34627905,0.44996524,0.3954353,0.49789947,OH,213918.44940185497,-82.999496,39.961201
"Corpus Christi, TX",-0.3635698279815696,-0.9150414106331819,-0.2687802826339565,-0.2687802826339565,-1.5450529552523957,-0.008316956849251593,-0.5343307507347047,0.09783117528105371,0.09783117528105371,-0.4721655216989404,396807,420827,1432.2285833976837,1254.2614555984555,14972,316.367052681746,335.5177647544048,18580,"Corpus Christi, TX",Corpus Christi,TX,0.25577381,0.30370814,0.31022996,0.34816521,TX,172228.51611902224,-97.394302,27.7945
"Corvallis, OR",-7.745817985594631,-2.262443438914027,-8.663397696079581,-8.663397696079581,-7.542875912066255,-3.085188747859137,-0.9954751131221719,-3.465030617272365,-3.465030617272365,-2.947938906224339,80725,85246,921.0350787644788,918.576435907336,3315,87.88054738227943,92.80229349210023,18700,"Corvallis, OR",Corvallis,OR,0.33020416,0.42014483,0.39926612,0.48938054,OR,378755.43495439936,-123.263513,44.563955
"Crestview, FL",4.532255722789527,5.740779329026881,6.06867347432609,6.06867347432609,0.9940473309780767,1.7988675410153414,1.7816211710773078,2.4492087305812325,2.4492087305812325,0.2293955379180177,184145,206630,783.3705868725868,746.4916038610038,9598,246.68060437326457,276.8015057788572,18880,"Crestview-Fort Walton Beach-Destin, FL",Crestview-Fort Walton Beach-Destin,FL,0.29257396,0.41137466,0.32572564,0.43272468,FL,265672.4915586612,-86.570978,30.757917
"Cumberland, MD",-1.8765062582601257,-3.7883736120182885,-2.315750602503304,-2.315750602503304,-1.7113037394076034,-1.1175464510611832,-0.9797517962116263,-1.3343504625670528,-1.3343504625670528,-1.0349451916349217,107712,102904,960.4330027027028,952.3753227799228,3062,113.09826853303544,108.04983869135732,19060,"Cumberland, MD-WV",Cumberland,MD-WV,0.2159169,0.2495884,0.27051818,0.30537957,MD,114570.07292669346,-78.762199,39.6525
"Dallas, TX",0.3734925466590517,-0.23359778150411015,0.3056059347892287,0.3056059347892287,0.30714007247815417,-0.008370494387760163,-0.07615834104593065,-0.06687970661960708,-0.06687970661960708,-0.026212148821411287,6401545,7359183,9684.832208494208,9338.944444787645,292811,685.4677247355188,788.0101486316678,19100,"Dallas-Fort Worth-Arlington, TX",Dallas-Fort Worth-Arlington,TX,0.34575835,0.46431294,0.39693448,0.51277018,TX,253427.9624680422,-96.798698,32.780399
"Dalton, GA",-1.5440516250304195,-4.199410609037328,-2.24542029253065,-2.24542029253065,-1.559156477883978,-1.3057306133409416,-1.37524557956778,-1.757701377059085,-1.757701377059085,-1.3048914548490773,118089,119167,498.2474243243243,495.70149343629345,4072,238.22603232720857,240.40072821631537,19140,"Dalton, GA",Dalton,GA,0.18415296,0.26577631,0.21352957,0.29899439,GA,148319.48605958468,-84.969775,34.774249
"Danville, IL",-3.428145084231056,-1.0787486515641855,-3.9960993232718565,-3.9960993232718565,-2.977865622995667,-1.9019071429506393,-0.05393743257820927,-2.2887024359595274,-2.2887024359595274,-1.6859300757883162,80497,76397,854.838054054054,851.9422455598456,1854,94.48645189217278,89.67391909271555,19180,"Danville, IL",Danville,IL,0.2729114,0.29558307,0.3065508,0.31886387,IL,65722.72472795798,-87.630225,40.124486
"Decatur, AL",-0.8008074038404454,-2.4827024827024826,-1.0921720086809106,-1.0921720086809106,-0.841045667130616,-0.6979029928032876,-0.20350020350020348,-0.9008753471374763,-0.9008753471374763,-0.6675593844205361,154466,151597,1359.9280494208494,1314.0608405405403,4914,117.54859077640592,115.36528243063722,19460,"Decatur, AL",Decatur,AL,0.20046784,0.26173639,0.24281776,0.30145735,AL,153057.10306592527,-86.984835,34.606125
"Decatur, IL",-6.459413381580322,-2.941176470588235,-7.8746390174315435,-7.8746390174315435,-5.626978880345152,-3.5002261577537315,-1.6884531590413945,-4.085191886155666,-4.085191886155666,-3.117497651438711,120272,114964,970.441954054054,963.513803861004,3672,124.82644204789244,119.31743950041492,19500,"Decatur, IL",Decatur,IL,0.25987801,0.32514477,0.2963607,0.3421002,IL,84421.84799677406,-88.951302,39.843498
"Deltona, FL",4.080036626447645,6.708347414667118,4.406236472174766,4.406236472174766,2.0401073853241245,0.7973734419062856,1.6263940520446096,0.8372064851614789,0.8372064851614789,0.13930876487281393,518448,561343,1439.523952895753,1320.7919652509652,23672,392.5281298190583,425.00485675905713,19660,"Deltona-Daytona Beach-Ormond Beach, FL",Deltona-Daytona Beach-Ormond Beach,FL,0.25670928,0.31427589,0.31015232,0.35761163,FL,215703.5132866511,-81.2221,28.92912
"Denver, CO",-2.1320934004511547,-4.802512882416313,-2.710618059445643,-2.710618059445643,-1.8852596735003984,-0.4346686861409369,-1.207118102877614,-0.5742839033332199,-0.5742839033332199,-0.40446777113388827,2506951,2850907,8638.507733204633,8579.675965637065,154086,292.1964663981167,332.2860923207736,19740,"Denver-Aurora-Lakewood, CO",Denver-Aurora-Lakewood,CO,0.3743498,0.50087583,0.42583242,0.54984295,CO,436057.3797004603,-104.997,39.749298
"Des Moines, IA",-2.08960451335643,-3.444016566155635,-2.9696364451007486,-2.9696364451007486,-1.3875478818399247,-0.9363384512472943,-1.4531715469011117,-1.3207657308015117,-1.3207657308015117,-0.7148356398654575,562915,633852,3269.3527405405403,3248.4280444015444,27526,173.28843129837756,195.1257627800631,19780,"Des Moines-West Des Moines, IA",Des Moines-West Des Moines,IA,0.3752175,0.48650342,0.42664063,0.53014994,IA,213867.11242734484,-93.619598,41.5896
"Detroit, MI",-2.4378008109280453,-3.5239019598671595,-3.055726861402331,-3.055726861402331,-1.7011428919429163,-0.8501281118844569,-1.092193273773329,-1.0568384632920542,-1.0568384632920542,-0.6024910242347412,4275414,4285707,4391.751215057915,4235.696669498069,171032,1009.376811797677,1011.80687249445,19820,"Detroit-Warren-Dearborn, MI",Detroit-Warren-Dearborn,MI,0.32424751,0.43224531,0.35065165,0.44599846,MI,178151.00853071414,-83.049103,42.332298
"Dothan, AL",-1.9175079319296222,-1.92,-2.6805884049610618,-2.6805884049610618,-2.1361407556965677,-0.6443611191231612,-1.1199999999999999,-0.8629362561292183,-0.8629362561292183,-0.6830112489183733,170824,173350,2225.9335173745176,2210.284978378378,5625,77.2859616162838,78.4288006731068,20020,"Dothan, AL",Dothan,AL,0.19694568,0.24327964,0.24625178,0.29699299,AL,131591.86766652198,-85.39093,31.223978
"Dover, DE",1.7886919814320552,-0.08693132425383947,2.017386166180101,2.017386166180101,1.9228939554028812,0.34602076124567477,-0.3911909591422776,0.3388099089129139,0.3388099089129139,0.4682046479952328,184240,199699,746.1268664092664,721.5852895752896,6902,255.3267128109553,276.7503757144755,20100,"Dover, DE",Dover,DE,0.25415933,0.31815681,0.30486917,0.37138954,DE,227654.76901590897,-75.522681,39.158934
"Dubuque, IA",-4.1548782680279706,-1.420013312624806,-5.360370163602472,-5.360370163602472,-2.9531712763642215,-1.2405022567489568,0.2662524961171511,-1.619087270421922,-1.619087270421922,-0.7588732341057691,102613,105683,1021.4169853281852,998.6236073359072,4507,102.75443044426652,105.82866179374363,20220,"Dubuque, IA",Dubuque,IA,0.31297672,0.37436256,0.34789139,0.39925113,IA,183503.67715904693,-90.667503,42.500702
"Duluth, MN",-3.289620645703849,-3.160432104276404,-3.725083111046871,-3.725083111046871,-2.078761678251843,-1.495341839349303,-1.0356218194804037,-1.6843291328856944,-1.6843291328856944,-0.9638253419707502,306593,304412,11407.157913127414,10620.65506023166,11201,28.86761675821835,28.662262193209777,20260,"Duluth, MN-WI",Duluth,MN-WI,0.26770693,0.31199023,0.30951229,0.347123,MN,165629.04463476845,-92.099899,46.7836
"Durham, NC",0.08804631105522526,-0.3933291378225299,-0.0028957453413718456,-0.0028957453413718456,-0.12443878629138502,0.27653063620307783,0.19823788546255508,0.31178829231897026,0.31178829231897026,0.24300781851242173,663067,766642,2161.0009525096525,2109.345145945946,31780,314.34732304212093,363.450240219552,20500,"Durham-Chapel Hill, NC",Durham-Chapel Hill,NC,0.41275987,0.52036542,0.45957696,0.57052588,NC,261047.275831357,-78.899696,35.994999
"Eau Claire, WI",-3.2582613116420944,-3.5690504727660137,-3.7587188612099642,-3.7587188612099642,-2.186070157600407,-2.1814946619217084,-0.7590890930882941,-2.506304016268429,-2.506304016268429,-1.7722419928825623,189903,196700,2816.9935876447876,2761.5670536679536,7509,68.76639107776437,71.22767478658184,20740,"Eau Claire, WI",Eau Claire,WI,0.27712199,0.32579857,0.30554214,0.35095063,WI,200113.34379675504,-91.500702,44.811001
"El Centro, CA",-1.3615103836563238,-2.559763063253649,-1.6494029802412133,-1.6494029802412133,-2.0767312647751406,-0.36825085470283175,-0.8462026655383965,-0.5086117960556448,-0.5086117960556448,-0.6333359548846441,218544,216157,5498.720941312741,5189.112442857143,4727,42.115872879345225,41.65587128441241,20940,"El Centro, CA",El Centro,CA,0.22491296,0.25206363,0.28689581,0.32677534,CA,238736.4178515946,-115.567537,32.792788
"El Paso, TX",-1.4566776837543225,-2.3914291180409415,-1.9229462302630111,-1.9229462302630111,-1.4259897448197936,-0.520284022165863,-0.1836617562655443,-0.657791855820773,-0.657791855820773,-0.4840699026569171,813672,850497,882.5824274131274,880.4384185328186,26135,924.166850142592,965.9926033410565,21340,"El Paso, TX",El Paso,TX,0.29758063,0.34773588,0.34833768,0.38792619,TX,137814.4897465705,-106.487,31.760099
"Elizabethtown, KY",-2.8125610062191484,-1.9190871369294606,-3.731349527288953,-3.731349527288953,-2.826505284881613,-1.0723150291435424,0.1037344398340249,-1.3681429009677328,-1.3681429009677328,-1.003988063697465,140530,143428,1101.0797328185329,1089.9071332046333,3856,128.93759084482943,131.59653298009104,21060,"Elizabethtown-Fort Knox, KY",Elizabethtown-Fort Knox,KY,0.30357519,0.37789562,0.34226704,0.40032881,KY,146085.12325043458,-85.859525,37.69385
"Elkhart, IN",-3.391907403511492,-3.2891507118311245,-4.089887391626898,-4.089887391626898,-2.692857063767121,-1.7826890923787273,-0.7756504663721159,-2.1070056359549567,-2.1070056359549567,-1.470810772904602,264215,270939,733.0599420849421,719.2025953667953,10185,367.37214479217727,376.7213880281123,21140,"Elkhart-Goshen, IN",Elkhart-Goshen,IN,0.18283184,0.23726732,0.21630467,0.26277831,IN,165725.00533213964,-85.972298,41.684601
"Elmira, NY",-2.527003600480064,-2.195121951219512,-3.0706760901453527,-3.0706760901453527,-1.6242165622082942,-0.9387918389118548,-0.2845528455284553,-1.2370982797706362,-1.2370982797706362,-0.5560741432190959,78938,74990,294.25028996138997,291.65381428571425,2460,270.6564979900094,257.11990149574103,21300,"Elmira, NY",Elmira,NY,0.20536025,0.26295757,0.24755412,0.30761611,NY,109997.69726567472,-76.805496,42.089901
"Erie, PA",-2.9823966199271803,-0.6096256684491979,-3.7809318284361217,-3.7809318284361217,-2.1366788965797046,-1.3248878147395518,-0.5026737967914439,-1.6982557509154945,-1.6982557509154945,-0.970581754462053,293277,285911,1041.8020131274131,1020.0540953667954,9350,287.5112225244703,280.2900368702416,21500,"Erie, PA",Erie,PA,0.24543543,0.29389223,0.29481268,0.33592576,PA,130592.00761363072,-80.083199,42.125999
"Eugene, OR",-3.4714312569804604,-4.084034602483375,-4.074460085590118,-4.074460085590118,-3.2392100054184962,-1.4295429664606163,-1.3299593950450186,-1.7182160984618107,-1.7182160984618107,-1.3388660968030874,341093,361724,2497.262100772201,2440.4819362934363,16993,139.76460752585876,148.21826567148472,21660,"Eugene, OR",Eugene,OR,0.28670657,0.34700429,0.34138468,0.39282721,OR,309980.09929025243,-123.095,44.050701
"Evansville, IN",-2.197869851628394,-2.204624643649034,-2.907193157762634,-2.907193157762634,-1.9340875832903166,-1.132085300650221,-0.10769718086791258,-1.4779147467074574,-1.4779147467074574,-0.9859868629800292,418117,422318,2903.3899054054054,2842.1136683397685,15785,147.1148056665322,148.59293092478552,21780,"Evansville, IN-KY",Evansville,IN-KY,0.24462347,0.30506468,0.28743854,0.33877203,IN,142205.9784311406,-87.573196,37.974098
"Fairbanks, AK",-5.126225662208498,-5.704534373476354,-6.869423111628,-6.869423111628,-4.5086322712598506,-2.0372561207916426,-0.5363237445148707,-2.874215475927894,-2.874215475927894,-1.7585370255258568,98392,99742,11514.688852895752,11428.415592277992,4102,8.609417395223359,8.72754400595951,21820,"Fairbanks, AK",Fairbanks,AK,0.30431253,0.33576667,0.37199977,0.39965317,AK,270110.9367802884,-147.719748,64.839674
"Fargo, ND",-9.325481321052397,-7.364045134470179,-11.895149678984106,-11.895149678984106,-8.132673050482436,-3.567474174747831,-2.6130482735216765,-4.54467657090943,-4.54467657090943,-3.123365009064694,214912,246561,3868.4236884169886,3841.211174903475,11787,55.94901977900251,64.1883480947115,22020,"Fargo, ND-MN",Fargo,ND-MN,0.31624398,0.4031021,0.37319818,0.4489179,ND,246617.25828753968,-96.785797,46.8769
"Farmington, NM",-2.1340441849902083,-3.2288254562470753,-2.7378461492639556,-2.7378461492639556,-1.9962918562312453,-1.119144595268766,-0.772110435189518,-1.5031385192741569,-1.5031385192741569,-1.0662774853126233,137444,134299,4865.697571428572,4852.109588030888,4274,28.32664792630505,27.678476251090206,22140,"Farmington, NM",Farmington,NM,0.21131162,0.22925924,0.26555133,0.27353746,NM,184830.8833303872,-108.218758,36.736863
"Fayetteville, AR",-0.8617321092034511,-1.194260285169376,-1.3645417293428082,-1.3645417293428082,-0.8383906495841762,-0.637826996559296,-0.6130233402960675,-0.9926863426526272,-0.9926863426526272,-0.593737572833999,504965,578370,3930.3961590733593,3875.969676447876,22022,130.28094700234448,149.21943365925554,22220,"Fayetteville-Springdale-Rogers, AR-MO",Fayetteville-Springdale-Rogers,AR-MO,0.30760106,0.43046272,0.36532432,0.48063016,AR,203880.79321647872,-94.164803,36.063099
"Fayetteville, NC",-4.322026812971277,-3.1399010346378766,-6.149154779040418,-6.149154779040418,-4.329935577464088,-1.7993569044643845,-2.636077372919478,-2.4519881504111427,-2.4519881504111427,-1.7180096125383293,421684,442547,1395.8708961389962,1387.995475289575,11115,303.8079068031722,318.8389356295791,22180,"Fayetteville, NC",Fayetteville,NC,0.26853907,0.34321123,0.32274923,0.3869625,NC,145427.29843083513,-78.8797,35.053101
"Flagstaff, AZ",-2.9426011847442295,0.599680170575693,-3.3050862295368995,-3.3050862295368995,-3.420584201464881,-1.0376725320260294,-0.2798507462686567,-1.0733899442644956,-1.0733899442644956,-1.2209285359946307,163882,171345,18971.131327027026,18924.21368494209,7504,8.659910669387557,9.054273157797752,22380,"Flagstaff, AZ",Flagstaff,AZ,0.25301144,0.32890993,0.30860171,0.38721773,AZ,379669.3715210455,-111.651122,35.199171
"Flint, MI",-3.7685266745815937,-5.534288526741769,-4.681870986685049,-4.681870986685049,-2.7718203056183217,-1.3761760688343354,-1.564038061905283,-1.7659224081804603,-1.7659224081804603,-1.0011744730828642,329449,313332,672.7664416988417,666.535022007722,9143,494.2711022260181,470.0908274199731,22420,"Flint, MI",Flint,MI,0.2535544,0.295344,0.30078515,0.34073025,MI,116141.7144811525,-83.691002,43.019402
"Florence, AL",-0.20538501035578913,-2.56140350877193,-0.26480820155423374,-0.26480820155423374,-0.23826968898017112,-0.21230810059250116,-0.5614035087719298,-0.2790582289581326,-0.2790582289581326,-0.18634651220483117,174142,173333,1749.2547907335909,1645.7976718146715,5700,105.81009013579988,105.31853518110852,22520,"Florence-Muscle Shoals, AL",Florence-Muscle Shoals,AL,0.21173815000000001,0.24818482,0.25456104,0.28966284,AL,134297.23862279093,-87.655403,34.797001
"Florence, SC",-0.3265423293950893,-1.068283528222896,-0.6876676444994662,-0.6876676444994662,-0.36422029047913806,-0.23728144539835475,0.11549011115923198,-0.3360066743816777,-0.3360066743816777,-0.2327959738407299,223655,222942,1884.154477992278,1871.0005467181468,6927,119.53764545515769,119.15656592995356,22500,"Florence, SC",Florence,SC,0.2301451,0.28915721,0.27805755,0.33905542,SC,126213.03795163069,-79.769501,34.191002
"Fond du Lac, WI",-3.6268728854519097,-4.3917942791100835,-4.574190430159497,-4.574190430159497,-2.781053649105848,-1.3852102464958918,-1.2713088702687085,-1.7627839536007734,-1.7627839536007734,-1.0758820686321895,103089,103450,755.2512293436293,742.4385455598456,3461,138.85189638458814,139.338131915002,22540,"Fond du Lac, WI",Fond du Lac,WI,0.23395444,0.32058883,0.277311,0.35256261,WI,170332.4426818396,-88.448283,43.774368
"Fort Collins, CO",-1.0524133462908973,-1.9070703375102898,-1.081386459345643,-1.081386459345643,-0.8064787819889861,-0.3076125688370587,-0.21951888777096865,-0.29263362487852285,-0.29263362487852285,-0.24800777453838677,328439,385875,2969.0152227799226,2927.564047104247,21866,112.1884934762982,131.80753479387823,22660,"Fort Collins, CO",Fort Collins,CO,0.31340542,0.40065864,0.36465126,0.43932381,CO,420322.14221871103,-105.076,40.585701
"Fort Smith, AR",-3.5756959295093718,-4.421915444348577,-5.417251331196883,-5.417251331196883,-3.5631345780305024,-1.7705378096679512,-1.8334771354616048,-2.5830121508097474,-2.5830121508097474,-1.7346920017892267,325339,326398,5254.408638223938,5124.573796911197,9272,63.4860600887621,63.692711420554474,22900,"Fort Smith, AR-OK",Fort Smith,AR-OK,0.23027444,0.29224509,0.28420717,0.34204745,AR,128990.1801022219,-94.426598,35.387699
"Fort Wayne, IN",-3.9221282794519046,-3.1872088098263447,-5.1264844613865606,-5.1264844613865606,-3.319569625123947,-1.5968861460137045,-1.1859381617958493,-2.026669034616466,-2.026669034616466,-1.336623092161875,458675,472983,1737.200613899614,1724.1105756756756,18888,266.03572095150923,274.3344926207177,23060,"Fort Wayne, IN",Fort Wayne,IN,0.26707259,0.35065696,0.31005374,0.38711464,IN,150450.11337527185,-85.137604,41.077702
"Fresno, CA",-2.0115355624800877,-2.5847711678102727,-2.3616334729464055,-2.3616334729464055,-1.999491020988585,-0.6166028176456418,-0.42635400706148824,-0.7843133445749053,-0.7843133445749053,-0.617088484641267,972978,1029512,5513.636759459459,5461.08082007722,30022,178.16583054821774,188.51799376692665,23420,"Fresno, CA",Fresno,CA,0.27334729,0.32261312,0.31901005,0.36268142,CA,272957.36082035466,-119.793,36.7369
"Gadsden, AL",-0.3739363799397123,-1.401323472168159,-0.5682815461124606,-0.5682815461124606,-0.3663050252470651,-0.160258448545591,-0.2724795640326975,-0.28121542042404896,-0.28121542042404896,-0.13227681467255129,79449,78623,316.96577065637064,304.45214864864863,2569,260.95726488594335,258.2441948561659,23460,"Gadsden, AL",Gadsden,AL,0.15603113,0.20541665,0.20780501,0.25658065,AL,119107.16366286112,-86.004303,34.0131
"Gainesville, FL",-1.816801028157495,-0.7960644007155635,-1.9730692837948358,-1.9730692837948358,-1.6727031974140283,-1.0911191598187744,-0.23255813953488372,-1.3249211356466877,-1.3249211356466877,-1.0190702444470408,288931,308124,1759.8172806949808,1646.787650965251,11180,175.4512792409182,187.10609095191825,23540,"Gainesville, FL",Gainesville,FL,0.2845985,0.3522273,0.33674473,0.40272713,FL,205517.06461661396,-82.325203,29.652
"Gainesville, GA",2.66223065591371,-1.3996377408200231,3.4248208534118993,3.4248208534118993,2.5904471798456967,0.09675164165688746,0.04939897908776551,0.11404209632718282,0.11404209632718282,0.107363112032159,144646,160204,389.0756814671815,370.7327725868726,6073,390.1624315290485,432.1279688389564,23580,"Gainesville, GA",Gainesville,GA,0.24043915,0.31962284,0.2779603,0.35922897,GA,229441.9252775717,-83.824775,34.298755
"Glens Falls, NY",-0.9464514347400397,-3.0126963632451043,-1.2913915597620065,-1.2913915597620065,-0.40837161817253703,-0.9707194202461945,0.043038519474930065,-1.0654482464288404,-1.0654482464288404,-0.5815948250612977,122495,119499,1779.5490741312742,1742.9714764478765,4647,70.27940597722295,68.56050234599098,24020,"Glens Falls, NY",Glens Falls,NY,0.25983703,0.28079259,0.31260541,0.3201665,NY,195145.12407950437,-73.644245,43.31084
"Goldsboro, NC",-0.3419240788983997,-0.5552873008208595,-0.6800683848157797,-0.6800683848157797,-0.3419240788983997,-0.4256605880163751,-0.12071463061323032,-0.689546892445106,-0.689546892445106,-0.3849553405284704,171053,171968,1130.7139961389962,1121.5744988416989,4142,152.51149181499244,153.3273092225253,24140,"Goldsboro, NC",Goldsboro,NC,0.17673251,0.24385422,0.24402,0.3230302,NC,119839.8259196092,-77.996309,35.384423
"Grand Junction, CO",-2.0330872390067216,-2.6881011991039663,-2.8922582734621307,-2.8922582734621307,-1.8546302967011905,-1.152038705327931,-1.0409803663196733,-1.6523130002577713,-1.6523130002577713,-1.0006807801873137,146821,151297,4325.976127799228,4313.779901158301,7589,34.03534796955608,35.07295306359394,24300,"Grand Junction, CO",Grand Junction,CO,0.25019151,0.28229931,0.30533361,0.34326184,CO,270051.41385126836,-108.564376,39.068823
"Grand Rapids, MI",-4.6634758985591755,-4.508196721311475,-6.203957879964536,-6.203957879964536,-3.739196191939162,-2.0750660199790443,-1.6517635370094386,-2.796011302810057,-2.796011302810057,-1.6987402866476073,799143,843684,3355.3126586872586,3237.4029042471043,32208,246.84693985775303,260.60519031881466,24340,"Grand Rapids-Wyoming, MI",Grand Rapids-Wyoming,MI,0.26677683,0.3491981,0.29494813,0.37401992,MI,211770.4601282109,-85.669701,42.966202
"Great Falls, MT",-2.2456923207508273,0.7224713502740409,-3.441293091949702,-3.441293091949702,-1.7509609671512931,-1.553310941080891,-0.5979073243647235,-1.9860796177957778,-1.9860796177957778,-1.2853314578811432,82176,82469,3154.4965177606177,3140.4205733590734,4014,26.167195788079574,26.260495393389004,24500,"Great Falls, MT",Great Falls,MT,0.27092353,0.29660368,0.35510203,0.37385404,MT,202808.44556487625,-111.298,47.505901
"Greeley, CO",-2.3253880537162193,-3.4451767525464345,-3.137342162146301,-3.137342162146301,-2.1278156512553674,-1.3111178490038244,-1.7375674056321149,-1.6733013174753768,-1.6733013174753768,-1.2773740475934312,178559,204482,3200.3543567567567,3188.1280687258686,6676,56.0074740257724,64.13857774594386,24540,"Greeley, CO",Greeley,CO,0.25570545,0.30535832,0.31712717,0.35681316,CO,370046.0277693941,-104.692,40.422298
"Green Bay, WI",-5.743372115201221,-6.735644076564926,-7.148777735393224,-7.148777735393224,-4.657002988111132,-2.6753925869413187,1.107087428867046,-3.5431766164409693,-3.5431766164409693,-2.2454542564689426,248368,251664,2583.868746332046,2523.537772200772,9665,98.4205597142296,99.72666261322664,24580,"Green Bay, WI",Green Bay,WI,0.30152082,0.36587563,0.34536955,0.40876964,WI,197550.3065393145,-88.011101,44.514599
"Greensboro, NC",-1.8485865670537116,-3.4948349427352343,-2.4528384032321964,-2.4528384032321964,-1.9168310193348397,-0.7824710804609711,-0.061756119470020215,-1.1023601478520957,-1.1023601478520957,-0.7673419275629221,874876,918756,2653.624923938224,2614.839396138996,35624,334.5811606218796,351.36230598200837,24660,"Greensboro-High Point, NC",Greensboro-High Point,NC,0.2749936,0.37066185,0.31997371,0.40691423,NC,165867.38668440602,-79.790604,36.071899
"Greenville, NC",-0.8128459582107416,-1.7105107939129407,-0.9619508302997057,-0.9619508302997057,-0.8535074360636621,-0.5803850565232902,0.16515276630883566,-0.7644357836349059,-0.7644357836349059,-0.5642739049211896,253411,260689,1595.0684536679537,1577.4902837837838,8477,160.64187691360348,165.25553449033538,24780,"Greenville, NC",Greenville,NC,0.23758149,0.31928006,0.28743246,0.36353299,NC,157647.89499961655,-77.37465,35.611591
"Greenville, SC",1.1030461506093805,-0.5103635038016873,1.2082262597117652,1.2082262597117652,0.9350344889770524,-0.058007604105615916,-0.7464500225670937,-0.12920968396375274,-0.12920968396375274,-0.07258464451557639,606516,665430,2280.4360544401543,2239.4767115830114,28803,270.82934011458156,297.13637858266884,24860,"Greenville-Anderson-Mauldin, SC",Greenville-Anderson-Mauldin,SC,0.27526933,0.36425245,0.31149352,0.38449478,SC,190111.175051776,-82.3974,34.849701
"Gulfport, MS",-1.6942112386254857,-0.5021592849251783,-2.6575927291132553,-2.6575927291132553,-2.0983022127350552,-1.0475006326815797,-0.6528070704027318,-1.5554064016372697,-1.5554064016372697,-1.1718363170229855,341875,363532,2917.280984169884,2875.725288030888,9957,118.88305236349404,126.4140220601264,25060,"Gulfport-Biloxi-Pascagoula, MS",Gulfport-Biloxi-Pascagoula,MS,0.24150307,0.29286602,0.29836509,0.33133119,MS,148390.01321433584,-89.092697,30.368
"Hagerstown, MD",1.0075487292078724,0.10842459069717013,1.0501029945710978,1.0501029945710978,0.9217462074969953,-0.07539265694448388,-0.3903285265098124,-0.16848208399183612,-0.16848208399183612,-0.051418422937032936,301559,317007,1244.3227146718148,1232.0228621621625,9223,244.7673734485521,257.3061018069603,25180,"Hagerstown-Martinsburg, MD-WV",Hagerstown-Martinsburg,MD-WV,0.25126317,0.3052913,0.30157906,0.35840461,MD,204652.34625957216,-77.720703,39.6465
"Hanford, CA",-3.072812734107227,-2.8517110266159698,-4.201897387280478,-4.201897387280478,-2.987954043715485,-1.0879149291628822,-0.9505703422053232,-1.5077002631945318,-1.5077002631945318,-1.068689132121003,153050,150839,744.4733482625483,743.2058725868726,2630,205.93217255843217,202.95722297642175,25260,"Hanford-Corcoran, CA",Hanford-Corcoran,CA,0.23970826,0.24923512,0.29033211,0.29712373,CA,233398.8453419184,-119.645899,36.32798
"Harrisburg, PA",-0.57129601040324,-1.663008610501435,-0.620502289594963,-0.620502289594963,-0.2468482332625952,-0.28229897225530415,-0.48961674826945806,-0.3237452970592223,-0.3237452970592223,-0.14915449170665085,588886,612117,1709.8591254826256,1664.0935992277991,23692,353.8779310690606,367.83808331697503,25420,"Harrisburg-Carlisle, PA",Harrisburg-Carlisle,PA,0.32349467,0.42247415,0.38510406,0.48745069,PA,194838.8098464467,-76.884399,40.2565
"Harrisonburg, VA",-1.5120632002451273,-2.2269558481797054,-1.6391564419221187,-1.6391564419221187,-1.4301320224344884,-0.750036635892517,0.5034856700232379,-0.9988942621531247,-0.9988942621531247,-0.7280551003823456,141480,150126,1027.7707305019303,1021.9519196911197,5164,138.4409552679951,146.9012358677059,25500,"Harrisonburg, VA",Harrisonburg,VA,0.24718574,0.27414089,0.29589379,0.3294217,VA,223596.9258761678,-78.869522,38.446142
"Hartford, CT",-0.8699451284722959,-3.1949396668076795,-0.9617250860240656,-0.9617250860240656,-0.8815747806278285,-0.5613664526967828,-0.7936987570758043,-0.6510876475020999,-0.6510876475020999,-0.5303278540384361,1278432,1272609,1682.232681081081,1637.4277305019305,49641,780.7562899940107,777.2001025107224,73450,"Hartford-West Hartford-East Hartford, CT",Hartford-West Hartford-East Hartford,CT,0.37761199,0.48062438,0.43547434,0.53337711,CT,246905.2558098612,-72.670601,41.764702
"Hattiesburg, MS",-2.2909223036395567,-1.3182674199623352,-2.714406830981651,-2.714406830981651,-2.310906558469085,-1.4830739417428693,-1.1142498430634025,-1.7259734754435898,-1.7259734754435898,-1.4552171016774662,160553,165130,2041.8908567567569,2027.337271814672,6372,79.1940256967154,81.45166682216224,25620,"Hattiesburg, MS",Hattiesburg,MS,0.25052422,0.28351903,0.29468331,0.33258033,MS,153340.0237116866,-89.290528,31.325678
"Hickory, NC",1.7579334457496165,1.6877637130801686,2.0525974830184723,2.0525974830184723,1.441167223984681,0.2415044728343194,0.17580872011251758,0.25453237684224567,0.25453237684224567,0.17362599674183313,413056,419868,2127.6532177606177,2085.2252424710423,14220,198.08699395491615,201.3537873263256,25860,"Hickory-Lenoir-Morganton, NC",Hickory-Lenoir-Morganton,NC,0.20109774,0.25540525,0.23653851,0.28725985,NC,150567.18556809204,-81.341599,35.7328
"Hinesville, GA",-1.8777336766475146,-2.240717029449424,-3.2299268021183534,-3.2299268021183534,-1.5955114294388162,-1.87548489380123,-0.5761843790012804,-2.9127359816499316,-2.9127359816499316,-1.79452871133499,86929,88937,790.7806942084942,762.4448216216216,1562,114.01349649816396,116.64712970420928,25980,"Hinesville, GA",Hinesville,GA,0.26628107,0.28784162,0.30540857,0.33450833,GA,141377.61369243494,-81.596007,31.846641
"Hot Springs, AR",-1.9776495967853933,-2.421858828399917,-2.969900099067653,-2.969900099067653,-1.7711814974955327,-0.9795661392317164,0.08279859242392879,-1.446109974353514,-1.446109974353514,-0.7138426213115816,104616,108007,905.6189451737451,846.6664915057916,4831,123.56223028732488,127.5673492261518,26300,"Hot Springs, AR",Hot Springs,AR,0.200555,0.22875041,0.24058945,0.27375662,AR,149180.77655519883,-93.050932,34.509951
"Houma, LA",-2.5917048624251855,-2.599628624482217,-3.2051264081035744,-3.2051264081035744,-2.3221152273757295,-0.4630213662634503,0.1571204113698043,-0.5890790500352756,-0.5890790500352756,-0.45554574380107365,213127,214029,2400.18112972973,1693.0811011583012,7001,125.88115232884692,126.41390885148655,26380,"Houma-Thibodaux, LA",Houma-Thibodaux,LA,0.2191426,0.26602289,0.26925623,0.30297536,LA,177954.2251809467,-90.717895,29.598402
"Houston, TX",0.3221306880815248,-0.051941357036296466,0.22583587545913167,0.22583587545913167,0.24469251685584312,-0.023704092234135908,-0.0913855454623562,-0.06842917519845872,-0.06842917519845872,-0.05233633008776998,5971020,6939730,9343.713745173744,8964.50764092664,256058,666.073390661173,774.1339823636602,26420,"Houston-The Woodlands-Sugar Land, TX",Houston-The Woodlands-Sugar Land,TX,0.31743258,0.42440853,0.37326643,0.48016521,TX,221189.911728635,-95.363197,29.757401
"Huntsville, AL",1.6582901006537771,-1.6085127443702056,2.055595801068181,2.055595801068181,1.500807659945916,0.5511885424775137,-0.6372185102697352,0.7146778134238032,0.7146778134238032,0.5239665777265835,404830,444494,1296.3304687258687,1240.995449034749,16164,326.21392795185375,358.1753666749778,26620,"Huntsville, AL",Huntsville,AL,0.40514109,0.5850355,0.41486892,0.56752485,AL,194349.48803284575,-86.5858,34.729698
"Idaho Falls, ID",0.431096300670688,1.2052660856666049,0.22600919559623736,0.22600919559623736,0.9473995022567174,0.19234825157126587,0.4264787687743371,0.32184586830893824,0.32184586830893824,0.47327793478719365,104866,118535,2189.297607722008,2143.3976857142857,5393,48.92512514076616,55.30238312284932,26820,"Idaho Falls, ID",Idaho Falls,ID,0.32024261,0.3837491,0.34894282,0.40118551,ID,239316.92138797423,-112.043284,43.491654
"Indianapolis, IN",-1.8303597237478153,-2.772093273735796,-2.4914282664864116,-2.4914282664864116,-1.4342366821276578,-0.6859610347449826,-0.7041305401475578,-0.9322177109135622,-0.9322177109135622,-0.5306470046738738,1665959,1798936,3390.065162934363,3361.9594335907336,74276,495.5321540631072,535.08557599657,26900,"Indianapolis-Carmel-Anderson, IN",Indianapolis-Carmel-Anderson,IN,0.31272539,0.4090918,0.35959107,0.45413646,IN,181759.70939598756,-86.153535,39.767721
"Iowa City, IA",-5.741438275204488,-3.1850708573032134,-6.418286026487631,-6.418286026487631,-4.731209910009299,-2.10818847089355,-1.2487722744492775,-2.386881215426077,-2.386881215426077,-1.733621219523727,172151,190353,1717.952828957529,1704.6243606177609,7127,100.99057832167315,111.66859068646392,26980,"Iowa City, IA",Iowa City,IA,0.29008862,0.35104591,0.36121973,0.42972472,IA,246186.07780031243,-91.529955,41.660093
"Ithaca, NY",-5.700164373691203,-4.35595938001069,-6.137105672018194,-6.137105672018194,-4.779221364076467,-2.8562743464457,-1.630144307856761,-3.3814820652541036,-3.3814820652541036,-2.3969286888383508,88644,88822,358.400294980695,356.72360154440156,3742,248.4949120726077,248.99389783982176,27060,"Ithaca, NY",Ithaca,NY,0.3544502,0.45513558,0.41638419,0.49601236,NY,231074.68685275473,-76.498324,42.438708
"Jackson, MI",-2.5246213366979005,1.8039556618126493,-3.3548402528209142,-3.3548402528209142,-1.4004413004610332,-1.3310770003528012,-1.0432514670723756,-1.66773304311948,-1.66773304311948,-0.8778171772317664,168990,167233,758.4103455598456,742.336098069498,4601,227.64621098107915,225.279358547836,27100,"Jackson, MI",Jackson,MI,0.29569119,0.40103766,0.32452288,0.42001873,MI,151443.91529347005,-84.408302,42.247002
"Jackson, MS",-1.1385370215789912,0.749770009199632,-1.4899415345853784,-1.4899415345853784,-1.1531576254099294,-0.4965905091880295,0.4783808647654094,-0.6680935922653606,-0.6680935922653606,-0.4954004600389996,577976,588211,5051.706322393822,5014.297587644788,21740,115.26559600773015,117.30675926561476,27140,"Jackson, MS",Jackson,MS,0.29780158,0.36943841,0.35386786,0.42772666,MS,144799.39756966665,-90.184303,32.300598
"Jackson, TN",-0.6317351466605198,-2.276064610866373,-0.8909122341958162,-0.8909122341958162,-0.5618625021610096,-0.4566933671411283,-0.4221732745961821,-0.6382902091857316,-0.6382902091857316,-0.4113121650435083,138517,138824,1321.695922007722,1314.7548652509652,5448,105.35576148908898,105.58926509353572,27180,"Jackson, TN",Jackson,TN,0.23080856,0.26938289,0.30233216,0.32931677,TN,126836.82940687478,-88.819367,35.6144
"Jacksonville, FL",2.749414196652458,4.091697222932833,3.336604411025262,3.336604411025262,2.1798128715702156,0.6342779583479853,1.0673374833006453,0.7745026833572694,0.7745026833572694,0.48606067378065815,1365245,1521415,3268.717358687258,3058.3247305019304,70362,446.4028905707265,497.4667944271262,27260,"Jacksonville, FL",Jacksonville,FL,0.31392929,0.40762556,0.36613652,0.46043634,FL,233817.61514229517,-81.659069,30.33006
"Jacksonville, NC",-2.2534326006320766,-0.8795548375516065,-3.7463814944981007,-3.7463814944981007,-2.483600534697816,-1.720505307141403,-1.0411057260814935,-2.555439487964873,-2.555439487964873,-1.6899637928134488,205229,225922,1043.482050965251,998.76538996139,5571,205.48269099306063,226.20127035913177,27340,"Jacksonville, NC",Jacksonville,NC,0.22761485,0.27445671,0.25546068,0.3171832,NC,171074.68514386634,-77.42009,34.749698
"Janesville, WI",-4.148967865503299,-1.481103166496425,-5.320834220046819,-5.320834220046819,-3.4986167269631836,-1.7352628218769952,-0.10214504596527069,-2.1795701213024046,-2.1795701213024046,-1.4309427537773995,231978,234950,1234.9064231660232,1200.238267953668,7832,193.2766236453268,195.75279865103388,27500,"Janesville-Beloit, WI",Janesville-Beloit,WI,0.27125108,0.31709501,0.30562428,0.35030547,WI,169602.95546364575,-89.026943,42.681524
"Jefferson City, MO",-1.5118270822711206,-2.7127659574468086,-2.048900932073764,-2.048900932073764,-1.4333426903532942,-0.834684372439948,-0.9219858156028369,-1.099010638358817,-1.099010638358817,-0.7401593748746828,173722,174557,3237.72916988417,3197.064833976834,5640,54.33796592229471,54.59914298418161,27620,"Jefferson City, MO",Jefferson City,MO,0.34570253,0.42167452,0.40289593,0.46687266,MO,168145.41139758012,-92.170752,38.573893
"Johnson City, TN",0.7431924037427354,1.2528801843317972,0.7667345233643997,0.7667345233643997,0.9232203773201683,-0.07431924037427354,0.5760368663594471,-0.16885700701185877,-0.16885700701185877,0.057239663393850435,213460,216633,919.8857467181468,901.5819023166024,6944,236.76162914485911,240.28099881260312,27740,"Johnson City, TN",Johnson City,TN,0.25007829,0.307318,0.30309084,0.36187345,TN,156711.05585813595,-82.343143,36.320382
"Johnstown, PA",-0.8994216847979941,-0.07380073800738007,-1.2409916285841387,-1.2409916285841387,-0.3348566344481741,-0.7611113357867918,0.14760147601476015,-0.9312896833420956,-0.9312896833420956,-0.4861083026651029,133572,123635,601.7011803088803,596.4048528957529,4065,223.96196032185435,207.3004594105985,27780,"Johnstown, PA",Johnstown,PA,0.2651937,0.31610015,0.32499018,0.36932415,PA,114102.98116937872,-78.920097,40.325699
"Jonesboro, AR",-5.214512509057064,-10.440874914559126,-6.505711104696714,-6.505711104696714,-5.175633405397127,-1.7737118351526007,-2.734107997265892,-2.3436441501675924,-2.3436441501675924,-1.7342436541644821,156370,169757,1828.1869833976832,1815.6966853281856,5852,86.12121245996342,93.4941399473429,27860,"Jonesboro, AR",Jonesboro,AR,0.21591391,0.25361294,0.27824724,0.31688547,AR,138339.38292562513,-90.709377,35.838336
"Joplin, MO",-3.625570776255708,-4.47733918128655,-4.923026744944553,-4.923026744944553,-3.6803652968036533,-1.400521852576647,-1.114766081871345,-1.79119373776908,-1.79119373776908,-1.3763861709067189,151456,153300,1288.073280694981,1282.197047104247,5472,118.12224988511151,119.56040637140556,27900,"Joplin, MO",Joplin,MO,0.22722319,0.2663022,0.2768456,0.29780418,MO,133170.0857398917,-94.513508,37.085398
"Kalamazoo, MI",-6.609751585550712,-4.5881036412154605,-8.449156075620483,-8.449156075620483,-5.5939499195144915,-2.2072080778183043,-1.4547645691658775,-2.7568840649737556,-2.7568840649737556,-1.8319771824273765,353652,362177,1223.153525868726,1183.903404633205,11617,298.71693806773703,305.9176944526223,28020,"Kalamazoo-Portage, MI",Kalamazoo-Portage,MI,0.27961016,0.35184675,0.32143331,0.38785452,MI,181694.7539416703,-85.584099,42.290699
"Kankakee, IL",-6.909598807575647,-12.488144166930129,-9.404934385390717,-9.404934385390717,-6.546868322579972,-3.0811244645034868,-3.8254821372115084,-4.054451265908546,-4.054451265908546,-2.9748069085564786,98027,95939,516.896733976834,512.4626853281853,3163,191.28612249538267,187.21167949732745,28100,"Kankakee, IL",Kankakee,IL,0.21985066,0.25413939,0.27724481,0.29689351,IL,145669.75159772098,-87.861547,41.117357
"Kansas City, MO",-0.9997196466392475,-1.5789473684210527,-1.3666448811519456,-1.3666448811519456,-0.8621199068213838,-0.3775217918089723,-0.381578947368421,-0.5000819733677636,-0.5000819733677636,-0.32949295140112256,2134909,2250731,9722.363322007724,9577.907863320464,91200,222.89930436435324,234.9919243449183,28140,"Kansas City, MO-KS",Kansas City,MO-KS,0.34792081,0.4454512,0.39479804,0.48864263,MO,203943.5548825452,-94.583504,39.101601
"Kennewick, WA",-1.2215313719360403,-3.308794427293596,-1.679345120242685,-1.679345120242685,-0.9963296166359837,-0.37485382148274227,-0.5936832106388031,-0.5794747994025495,-0.5794747994025495,-0.28772563594891565,306508,345468,3927.7993285714288,3838.6553613899614,12633,79.84775165880343,89.99713896558494,28420,"Kennewick-Richland, WA",Kennewick-Richland,WA,0.27111742,0.33908379,0.31663498,0.35940728,WA,295423.22881406546,-119.120164,46.202718
"Killeen, TX",-2.98454537395467,-2.1469029782568976,-4.697345147686449,-4.697345147686449,-2.9906664358955957,-1.6490985153258728,-0.8130824045313357,-2.4091866586178217,-2.4091866586178217,-1.532165125144056,433621,473774,4183.372983783784,4132.20367992278,10946,104.9369860703728,114.65407726679474,28660,"Killeen-Temple, TX",Killeen-Temple,TX,0.30000001,0.33442914,0.36031473,0.38821179,TX,162247.43475589922,-97.728996,31.122101
"Kingsport, TN",1.0352987892159846,-0.6708357021034679,1.1287414699129297,1.1287414699129297,1.109271576196774,-0.10983838066844501,-0.35247299602046617,-0.21781943594949357,-0.21781943594949357,-0.06500638855887561,317710,312277,2536.071245173745,2500.129338996139,8795,127.07742557333778,124.90433799932391,28700,"Kingsport-Bristol-Bristol, TN-VA",Kingsport-Bristol-Bristol,TN-VA,0.24874286,0.32238421,0.28158811,0.34237808,TN,144697.1476204808,-82.559402,36.5466
"Kingston, NY",1.1053353409995492,1.0437131630648329,0.8925163282726079,0.8925163282726079,0.13283205616350333,-0.751436216636136,-0.19646365422396855,-0.82360670202461,-0.82360670202461,-0.39082355874821373,212549,208534,1448.6674945945945,1434.4747555984557,8144,148.17200454066244,145.37307065609576,28740,"Kingston, NY",Kingston,NY,0.27460095,0.30111599,0.33760926,0.35644352,NY,237134.88194407817,-73.996169,41.927154
"Knoxville, TN",0.3549866520637963,1.315585822628076,0.40028749401054137,0.40028749401054137,0.46519268943801767,-0.014785406256417277,-0.18186039312799876,-0.035827229789855565,-0.035827229789855565,0.06790334725169415,689520,730450,2233.630062162162,2146.718705405405,25844,321.19718259490594,340.26349058250526,28940,"Knoxville, TN",Knoxville,TN,0.29700688,0.38854551,0.34945592,0.42547292,TN,189039.00565764811,-83.919998,35.9646
"Kokomo, IN",-10.514872914818318,-9.891984081864697,-12.463804853318255,-12.463804853318255,-9.507746005128254,-3.233920580292291,-3.2120523024445706,-3.858865739160955,-3.858865739160955,-2.8741627587282705,102310,102569,609.5957096525096,608.5778976833977,3518,168.11323643111507,168.5388187616366,29020,"Kokomo, IN",Kokomo,IN,0.22189923,0.2752988,0.23751345,0.26009741,IN,113520.24651171346,-86.1306,40.487701
"La Crosse, WI",-4.438727546005708,-1.6712664826740264,-5.170033944866332,-5.170033944866332,-3.518331916618348,-1.445612217900147,-1.0272922416436676,-1.7197606408430484,-1.7197606408430484,-1.0909643607050175,173852,177641,1857.1404548262549,1825.4288575289577,6522,95.23898961219425,97.31466623162116,29100,"La Crosse-Onalaska, WI-MN",La Crosse-Onalaska,WI-MN,0.28367144,0.34944367,0.32613766,0.37473899,WI,201685.02935546584,-91.2621,43.814999
"Lafayette, LA",-0.8411933207573534,-1.2083862002295933,-0.914448403549221,-0.914448403549221,-0.9802277649689094,-0.47159924544120724,0.2356353090447707,-0.5858659959477399,-0.5858659959477399,-0.47753790260602247,276241,286260,763.1015934362935,709.6374138996139,16551,389.27062551845296,403.38910321390506,29180,"Lafayette, LA",Lafayette,LA,0.24472776,0.31087083,0.30385208,0.36816373,LA,174835.0680464573,-92.0215,30.225201
"Lake Charles, LA",-6.331724621540238,-6.333642506956407,-7.701088974136863,-7.701088974136863,-5.315967495771975,-1.3973105638741081,-0.27825626076586724,-1.6784226374623603,-1.6784226374623603,-1.484449119333416,184861,193944,2360.8574416988417,1968.361418146718,7547,93.91618749266746,98.5306855803977,29340,"Lake Charles, LA",Lake Charles,LA,0.21407752,0.29567829,0.25688434,0.32198793,LA,201799.49281046548,-93.216904,30.229601
"Lake Havasu City, AZ",7.1689799941059675,16.091954022988507,8.607365608800468,8.607365608800468,2.173545454106257,2.796283860495002,4.9096880131362886,3.4805231195860644,3.4805231195860644,0.9831440318084537,199445,206989,11692.248076447877,11543.249196911196,6090,17.278064139286585,17.931606298111213,29420,"Lake Havasu City-Kingman, AZ",Lake Havasu City-Kingman,AZ,0.2123618,0.24755459,0.27205974,0.30285826,AZ,236292.41466680623,-114.319807,34.477707
"Lakeland, FL",5.066044609804335,5.530516431924883,5.733043123166725,5.733043123166725,2.3433892668501164,1.272850047107996,0.863849765258216,1.4381150395947377,1.4381150395947377,0.29372436083924297,653078,749342,2396.184496138996,2187.624720849421,21300,298.5329219293243,342.5368130366721,29460,"Lakeland-Winter Haven, FL",Lakeland-Winter Haven,FL,0.26082939,0.3150284,0.31366169,0.36554962,FL,194919.1920809113,-81.955299,28.0481
"Lancaster, PA",-1.3254272758981513,-2.250977220649683,-1.4541002694931342,-1.4541002694931342,-1.0099485134494948,-0.6408487732249114,-0.18870467718021297,-0.7437004027646906,-0.7437004027646906,-0.5006359899143973,555785,576267,1164.7329030888031,1122.840911969112,22257,494.9810735212051,513.2223041191185,29540,"Lancaster, PA",Lancaster,PA,0.24055651,0.30670777,0.29463229,0.35845444,PA,238529.0171035254,-76.306099,40.039299
"Lansing, MI",-5.697414703245282,-6.3106048945667235,-6.872920966210231,-6.872920966210231,-4.583026065181523,-2.4988195597621083,-2.0778820994305067,-3.036251452339394,-3.036251452339394,-2.057414491031307,364686,376978,800.4866733590734,786.2835891891892,12994,463.809756446859,479.44279288435536,29620,"Lansing-East Lansing, MI",Lansing-East Lansing,MI,0.36431348,0.44880426,0.40994588,0.49284297,MI,158667.92461758395,-84.552597,42.730499
"Laredo, TX",-0.1019386547738236,-1.1228275727396992,-0.14784745608446345,-0.14784745608446345,-0.4274142168016747,0.07645399108036771,0.019527436047646944,0.06374806589605898,0.06374806589605898,-0.038591062164376085,252035,274675,2797.7797996138997,2785.459244015444,10242,90.4823865369766,98.61031016344572,29700,"Laredo, TX",Laredo,TX,0.26591164,0.30128995,0.33681896,0.37159777,TX,166865.14080627428,-99.506401,27.504801
"Las Cruces, NM",0.07729992884311186,-0.21119324181626187,-0.01684216992674426,-0.01684216992674426,0.004095360468509238,0.27541299150724624,0.6687785990848293,0.33110989387897183,0.33110989387897183,0.25032890863762713,189555,195343,2606.097808880309,2602.747166795367,5682,72.82881811120734,75.05262228006423,29740,"Las Cruces, NM",Las Cruces,NM,0.30582881,0.3728475,0.34512526,0.40245411,NM,180685.85598414077,-106.788,32.311901
"Las Vegas, NV",0.01862429746030639,1.169569938157957,-0.31783326941743567,-0.31783326941743567,0.03435861772849628,0.3807430268978893,0.36113864891658404,0.3796787813287289,0.3796787813287289,0.3527148353997435,1948681,2179948,5332.802737837838,5193.078828957529,84732,375.24579621896146,419.77949339883367,29820,"Las Vegas-Henderson-Paradise, NV",Las Vegas-Henderson-Paradise,NV,0.23964137,0.32357496,0.30407009,0.37342075,NV,304830.5397351315,-115.141,36.1702
"Lawrence, KS",-3.3836479532307386,4.473304473304474,-4.4782058682649435,-4.4782058682649435,-3.168715687599023,-1.46399577504575,-0.25252525252525254,-1.7890961791184095,-1.7890961791184095,-1.322754571916336,73018,81421,381.0334042471043,374.7952297297297,2772,194.82104949055605,217.24129215495583,29940,"Lawrence, KS",Lawrence,KS,0.30184817,0.36799163,0.350474,0.40940413,KS,211796.15148486805,-95.235902,38.97321
"Lawton, OK",-2.892740899997014,-2.711961176134742,-4.036176057810027,-4.036176057810027,-2.902445579145391,-1.4459971931081848,-1.1133314302026833,-2.1631729821732506,-2.1631729821732506,-1.4012063662695213,136697,133956,2031.9340451737453,2013.9489297297296,3503,67.87510744790565,66.51409974828745,30020,"Lawton, OK",Lawton,OK,0.26654515,0.32688621,0.34411854,0.38242462,OK,97392.3533721265,-98.395599,34.6049
"Lebanon, PA",-0.5197471847027495,-0.4044216770018873,-0.4161185793576951,-0.4161185793576951,-0.3914145465045398,-0.27511309313741217,-0.21569156106767323,-0.31914722961917286,-0.31914722961917286,-0.17725945651127722,119648,124676,404.33584362934357,403.4119833976834,3709,296.5900987677182,309.053784049579,30140,"Lebanon, PA",Lebanon,PA,0.20704713,0.2296679,0.25906166,0.28456482,PA,191189.52470343176,-76.423713,40.333413
"Lewiston, ID",-3.7915829258781537,-3.47247875877355,-5.041695413504514,-5.041695413504514,-3.563608003119657,-2.263251042385338,-0.8865903213889916,-3.253742088370279,-3.253742088370279,-2.119266880643129,65003,66674,1905.4491208494208,1889.253103861004,2707,34.40671864831426,35.291195162649494,30300,"Lewiston, ID-WA",Lewiston,ID-WA,0.22166246,0.23441455,0.27285117,0.27638942,ID,230855.14213027907,-117.015996,46.417745
"Lewiston, ME",-1.5603799185888738,-4.909867172675521,-2.2873180795895984,-2.2873180795895984,-1.5752495306778684,-0.6765673500492556,-1.5417457305502846,-0.8599282541216705,-0.8599282541216705,-0.5111429155591903,107702,107602,497.118577992278,467.925266023166,4216,230.1692338935763,229.95552455308717,74650,"Lewiston-Auburn, ME",Lewiston-Auburn,ME,0.28531143,0.31519419,0.34115347,0.36540416,ME,182343.68375052168,-70.226997,44.0947
"Lexington, KY",-2.246691236542546,-1.9239158886659107,-2.8253844338338086,-2.8253844338338086,-2.0970933715800366,-0.8917775639512718,-0.532239769653608,-1.1673898440478567,-1.1673898440478567,-0.7942847805958497,510995,550810,1973.783447876448,1953.598781853282,22922,261.56599028754744,281.9463265008151,30460,"Lexington-Fayette, KY",Lexington-Fayette,KY,0.26912341,0.34080881,0.30464965,0.36847436,KY,193911.9745187066,-84.497398,38.047401
"Lima, OH",-2.1042338198544055,-0.33585222502099077,-2.4509253558364423,-2.4509253558364423,-1.4242512042301982,-0.9027199304624969,0.2518891687657431,-1.0632537756691174,-1.0632537756691174,-0.5414508710296622,114394,110444,540.5156494208494,535.8039606177606,3573,213.49972827395356,206.12762897956648,30620,"Lima, OH",Lima,OH,0.19525893,0.22071144,0.23502064,0.25246018,OH,116275.86656403136,-84.107697,40.740002
"Lincoln, NE",-6.877739357703739,-5.58965221408302,-8.944530536249147,-8.944530536249147,-6.5189485492245955,-2.733575418348348,-0.7919223916056227,-3.5519422696626615,-3.5519422696626615,-2.56560002775497,317027,345884,1870.8804590733591,1855.8285934362937,15153,170.82773760532797,186.3771262191588,30700,"Lincoln, NE",Lincoln,NE,0.33379105,0.40259266,0.39048916,0.46179909,NE,204042.08003580093,-96.702301,40.813099
"Little Rock, AR",-1.4735869689085879,-1.6328999092833383,-1.9552092602605537,-1.9552092602605537,-1.4968637026009324,-0.7123650373761302,-0.4747505291805261,-0.8915473936119914,-0.8915473936119914,-0.7080006498088156,792847,824858,5606.293541698842,5451.632984169884,33070,145.4329376724773,151.3047562803974,30780,"Little Rock-North Little Rock-Conway, AR",Little Rock-North Little Rock-Conway,AR,0.30751234,0.38509184,0.36560059,0.44196075,AR,162278.9057259442,-92.271202,34.7439
"Logan, UT",-8.01937336590802,-9.356908152088875,-8.273470204163274,-8.273470204163274,-7.894360864657894,-3.2553255325532557,-4.70974808324206,-3.448273398768448,-3.448273398768448,-3.2660408898032656,127417,139986,1560.313681853282,1547.0275891891893,6391,82.36246133579323,90.48707403684242,30860,"Logan, UT-ID",Logan,UT-ID,0.33831605,0.37795717,0.3838523,0.41451836,UT,279591.321682949,-111.83711,41.736951
"Longview, TX",-0.10341735198152989,-0.1837639174143336,-0.38619321108969834,-0.38619321108969834,-0.14234196416645997,-0.49915090919498556,-0.3134796238244514,-0.7264401152473812,-0.7264401152473812,-0.4537388616459005,257091,262045,2706.3871181467184,2648.9091683397683,9251,97.05542306727509,98.92562687011252,30980,"Longview, TX",Longview,TX,0.25540122,0.30825719,0.31459692,0.36577541,TX,161885.0219701275,-94.741699,32.496601
"Longview, WA",-0.8679435394772894,-2.9505582137161084,-1.2698314492535863,-1.2698314492535863,-0.3924306838369822,-0.38535986070478434,-0.531632110579479,-0.6603264952581293,-0.6603264952581293,-0.24394339806082677,107920,113141,1231.108515057915,1189.7541366795367,3762,90.70781657560946,95.096118191077,31020,"Longview, WA",Longview,WA,0.21785598,0.24812129,0.27162057,0.28629851,WA,272558.5900347717,-122.936876,46.138869
"Los Angeles, CA",-2.621375366211604,-2.9027709488366313,-2.973892157774232,-2.973892157774232,-2.5198469878929615,-0.6364484484685139,-0.49535726194311164,-0.73875769924158885,-0.73875769924158885,-0.6653197863431242,12940245,13369661,4814.182311969112,4506.860230888031,707772,2871.232817763744,2966.513340788837,31080,"Los Angeles-Long Beach-Anaheim, CA",Los Angeles-Long Beach-Anaheim,CA,0.33373454,0.44738179,0.39088523,0.50535589,CA,674239.6361434378,-118.253,34.049999
"Lubbock, TX",-2.641405710531432,1.976592977893368,-3.3375904212170577,-3.3375904212170577,-2.4795022894417516,-0.8604680785449474,0.5288253142609449,-1.090954191052741,-1.090954191052741,-0.7857176377519894,277426,298326,3468.8190833976832,3459.0220965250965,11535,80.20359288213271,86.24576301484043,31180,"Lubbock, TX",Lubbock,TX,0.28120643,0.34272766,0.33995634,0.39429203,TX,151621.5859804671,-101.847,33.584099
"Lynchburg, VA",-0.23083779915690933,-0.22779043280182232,-0.626493786911852,-0.626493786911852,-0.2752296836101611,-0.54442207093468,-0.09903931860948798,-0.765138520436248,-0.765138520436248,-0.5067777529183225,271425,281583,2151.5413702702704,2117.5431235521237,10097,128.17920777202005,132.9762765481025,31340,"Lynchburg, VA",Lynchburg,VA,0.25989035,0.3367635,0.30855089,0.37984034,VA,177019.6025155202,-79.142799,37.414101
"Macon, GA",-0.6729078056558611,-0.5661564269238835,-0.8643616524703782,-0.8643616524703782,-0.6811231062798505,-0.8338530133349266,0.20968756552736423,-1.1622409846411221,-1.1622409846411221,-0.8443088504927313,271745,267793,1892.7195204633204,1866.2898895752896,9538,145.6070686113189,143.4894983334778,31420,"Macon, GA",Macon,GA,0.28446573000000003,0.36960289,0.33681262,0.42105669,GA,118391.68268931762,-83.628098,32.837299
"Madera, CA",0.9539730589746402,-0.86292731496847,1.1028135105304944,1.1028135105304944,0.839728653400546,0.0348542254293847,-1.294390972452705,0.13631874834603788,0.13631874834603788,0.021299804429068425,150515,154931,1688.0031231660232,1679.0699297297297,3013,89.64188884272828,92.2719162893581,31460,"Madera, CA",Madera,CA,0.19255288,0.23905964,0.23706755,0.29431245,CA,272533.61899979174,-120.063593,36.962354
"Madison, WI",-4.702303346371143,-6.221495895408939,-5.356096200995466,-5.356096200995466,-3.699621985519012,-1.6319401736734642,-1.8014594101550623,-1.762088673505367,-1.762088673505367,-1.3378924667699852,561081,609765,2907.0058420849423,2861.361850965251,26312,196.0887959035049,213.10307180977549,31540,"Madison, WI",Madison,WI,0.38297972,0.46685943,0.42545289,0.512532,WI,291848.68573592743,-89.386398,43.075298
"Manchester, NH",-1.4144570425259648,-5.215193241535289,-1.6783918102550366,-1.6783918102550366,-0.9258101955182573,-0.8290926405380473,-1.7162243065256437,-1.0015772401273695,-1.0015772401273695,-0.6234562390262774,324888,336030,820.7163934362934,805.5758895752896,15033,403.2990612110862,417.1301603591433,74950,"Manchester, NH",Manchester,NH,0.3406758,0.43576771,0.39278284,0.48086736,NH,314634.80026802886,-71.463097,42.9939
"Manhattan, KS",-11.37610416937087,-5.086153207390492,-14.541833758035757,-14.541833758035757,-10.75578813611428,-5.2754189524310515,-3.363089059580652,-7.028563230562179,-7.028563230562179,-4.972775777615335,140829,146377,3054.304927413127,3010.5291517374517,4817,46.77881957021544,48.62168496708367,31740,"Manhattan, KS",Manhattan,KS,0.30176511,0.37239885,0.35826859,0.41768038,KS,183893.4664175721,-96.573393,39.179442
"Mankato, MN",-15.139840495005435,-18.57221508533676,-18.100898218885213,-18.100898218885213,-13.82425263956687,-3.5972535370560896,0.036703982382088454,-4.367780866697313,-4.367780866697313,-3.0434370188764603,133080,137049,2010.3664532818536,1955.5846571428572,5449,68.05126002288858,70.08083209255228,31860,"Mankato-North Mankato, MN",Mankato-North Mankato,MN,0.25985584,0.32786039,0.30022326,0.35807416,MN,219568.64041401332,-94.005042,44.164098
"Mansfield, OH",-3.278311890287007,-0.3694581280788177,-4.506927753428531,-4.506927753428531,-2.688039021631557,-1.3396013007210519,-0.5336617405582923,-1.9731726283048212,-1.9731726283048212,-1.1681747490456666,56717,56584,87.06787722007722,86.79526602316602,2436,653.4572978307596,651.9249561940105,31900,"Mansfield, OH",Mansfield,OH,0.20299301,0.23869713,0.24868755,0.28929344,OH,109331.28572212969,-82.516701,40.758598
"McAllen, TX",1.165491080198696,-0.3053858967240422,1.7145125681731008,1.7145125681731008,-0.9434315275452071,0.6394005444493298,0.34702942809550247,0.9205239623188677,0.9205239623188677,-0.2834504242401564,774680,855176,1474.9778768339768,1462.99586988417,21612,529.51619067888,584.5375353436282,32580,"McAllen-Edinburg-Mission, TX",McAllen-Edinburg-Mission,TX,0.25452441,0.2753647,0.29697475,0.30698913,TX,112134.6126411899,-98.2351,26.2008
"Medford, OR",-1.2884320200939579,-2.3578113750899927,-1.52732685241174,-1.52732685241174,-1.1902879203683892,-0.28047816177496626,-1.0169186465082793,-0.35662123819712543,-0.35662123819712543,-0.2241964742546165,201553,214990,1914.0187613899616,1904.035984169884,11112,105.855667474621,112.91278199961684,32780,"Medford, OR",Medford,OR,0.2583757,0.30176851,0.31357661,0.35080349,OR,326147.11008829135,-122.872,42.327499
"Memphis, TN",-1.5512131738907298,-1.7883091923311303,-1.929367737495216,-1.929367737495216,-1.503970737871969,-0.36162341919541013,-0.18984671635494305,-0.47762325306816256,-0.47762325306816256,-0.34471403864238437,1324563,1348364,4829.027702702702,4710.061937065637,42666,281.21986880393365,286.273093223914,32820,"Memphis, TN-MS-AR",Memphis,TN-MS-AR,0.2602374,0.34014583,0.31813696,0.3973625,TN,156398.9844568037,-90.055496,35.1427
"Merced, CA",-2.2765386021762977,-2.530917457578372,-3.2042391153589125,-3.2042391153589125,-2.3329634719893075,-1.0102888701156236,-0.8771929824561403,-1.358200204264333,-1.358200204264333,-1.0203759976799607,297805,317236,1752.548449034749,1728.00475984556,6954,172.34038176296244,183.58514245548312,32900,"Merced, CA",Merced,CA,0.24273875,0.27116239,0.29579562,0.33159253,CA,281386.23890980525,-120.485484,37.303361
"Miami, FL",-1.3436886977423073,0.36822953608513576,-1.677694797247502,-1.677694797247502,-1.9489642577950421,-0.5555300408120668,-0.002174048921535857,-0.6997953388349704,-0.6997953388349704,-0.631053681538799,5551913,6074919,2126.531698069498,1995.619615830116,367977,2782.0497232838516,3044.1267222526385,33100,"Miami-Fort Lauderdale-West Palm Beach, FL",Miami-Fort Lauderdale-West Palm Beach,FL,0.31448448,0.40740648,0.3670482,0.46962363,FL,337725.53227917146,-80.191803,25.7749
"Michigan City, IN",-1.1806568596708886,-1.5096304008328996,-1.6073838770808055,-1.6073838770808055,-0.3967334251319036,-0.42672701740991703,-0.2602811035918792,-0.5946911341667916,-0.5946911341667916,-0.0040900353106381815,75185,73349,625.8323467181467,619.039167953668,1921,121.4543503742032,118.48846373076316,33140,"Michigan City-La Porte, IN",Michigan City-La Porte,IN,0.22117449,0.25546363,0.2581183,0.30922475,IN,152837.49847099636,-86.902883,41.719566
"Midland, TX",-4.334625873529913,-6.732477788746298,-5.827509800579512,-5.827509800579512,-4.3117223453212885,-1.6426623487301857,-1.865745310957552,-2.222920572694733,-2.222920572694733,-1.6836756434293505,147323,187744,1130.6813725868726,1127.4249498069498,10130,130.67211260955887,166.52460993713825,33260,"Midland, TX",Midland,TX,0.23858714,0.3602795,0.31079128,0.45006192,TX,273760.36358935223,-102.077,31.9984
"Milwaukee, WI",-3.154866980273041,-4.167521421470389,-3.822401488479732,-3.822401488479732,-2.6075350999168316,-1.0545589622719038,-1.0525319152293635,-1.2657600352396259,-1.2657600352396259,-0.9009773079160954,1504855,1521015,1368.3913038610035,1322.244091891892,63371,1138.1068058673077,1150.328452459714,33340,"Milwaukee-Waukesha-West Allis, WI",Milwaukee-Waukesha-West Allis,WI,0.32395992,0.42956898,0.36482447,0.46419871,WI,247289.0295729712,-87.907097,43.036098
"Minneapolis, MN",-3.301417098844152,-5.709845989548648,-4.022950160069561,-4.022950160069561,-2.1731816847286143,-1.0509196462634562,-1.573102467647006,-1.279823909394035,-1.279823909394035,-0.7201862340740507,3310896,3549082,6850.294151737452,6495.090534362935,166677,509.75363353033634,546.4253317522246,33460,"Minneapolis-St. Paul-Bloomington, MN-WI",Minneapolis-St. Paul-Bloomington,MN-WI,0.36763227,0.47622299,0.41136688,0.51238036,MN,297418.505056655,-93.267601,44.977901
"Missoula, MT",-2.1632251720747298,-4.411578814309189,-2.6570256853011007,-2.6570256853011007,-1.6436034566835345,-1.669184833441255,-1.8455315383643027,-2.0344389284600815,-2.0344389284600815,-1.4053768856272635,116409,125091,3319.222967953668,3294.3074084942086,7911,35.336410833987486,37.971866158409824,33540,"Missoula, MT",Missoula,MT,0.28191999,0.33771703,0.35088956,0.39807907,MT,324975.2952290432,-113.995563,46.872665
"Mobile, AL",-1.6486241801423496,-1.9062863795110594,-2.0326209440522396,-2.0326209440522396,-1.7605871192056168,-0.6941702221922584,-0.2764842840512224,-0.8944996099355671,-0.8944996099355671,-0.7124695412649645,413910,415316,1319.3172629343628,1256.1736776061775,13744,329.50061554288095,330.6198875233919,33660,"Mobile, AL",Mobile,AL,0.24979036,0.33998099,0.30248636,0.39268759,AL,128768.45976514288,-88.042503,30.691999
"Modesto, CA",-2.5506816774442425,-2.6400468041538687,-3.318667708893784,-3.318667708893784,-2.6095607418762117,-0.8590252469367659,-0.7459412022817025,-1.1719573228298497,-1.1719573228298497,-0.863897997096653,466579,492535,1270.4184737451735,1244.8596208494207,13674,374.8045098302998,395.65505359063894,33700,"Modesto, CA",Modesto,CA,0.24801552,0.28783533,0.30633941,0.3433843,CA,323881.9977915644,-120.996,37.640301
"Monroe, LA",-2.420229496106375,-2.7513630024090276,-3.467874883408169,-3.467874883408169,-2.440294136786621,-1.0422767402008632,-0.6339546088500064,-1.4397735407041061,-1.4397735407041061,-1.0091971974577558,183690,184404,2047.6390073359073,1985.2482733590737,7887,92.527469971901,92.88712272142432,33740,"Monroe, LA",Monroe,LA,0.23971331,0.29752299,0.30708012,0.36061755,LA,127069.48051889372,-92.113297,32.505299
"Monroe, MI",-1.1072481563711387,-3.1695721077654517,-1.421004161996616,-1.421004161996616,-0.3398131027934636,-0.2662821162646259,-0.8240887480190174,-0.3531629032603496,-0.3531629032603496,0.00856671687714614,141666,140077,465.14364594594593,448.2727861003861,3155,316.0263223480074,312.4816057172634,33780,"Monroe, MI",Monroe,MI,0.26368517,0.34763196,0.31968281,0.39080977,MI,182174.58900357017,-83.396405,41.914251
"Montgomery, AL",-2.587743414429419,-3.609394313967861,-3.4462515970855345,-3.4462515970855345,-2.590399689747043,-1.1257294796091026,-1.0877626699629173,-1.5518226033091875,-1.5518226033091875,-1.1578704109523543,377768,376467,2911.8731984555984,2849.9802397683397,12135,132.55109447029247,132.0946000771574,33860,"Montgomery, AL",Montgomery,AL,0.28549942,0.3871859,0.33606979,0.43529585,AL,140401.71368309268,-86.309601,32.378502
"Morgantown, WV",-5.046185048830494,-4.935183079372299,-5.874723514325816,-5.874723514325816,-4.736080186356856,-2.5690203772697546,-2.1605640209233568,-2.8979372882725984,-2.8979372882725984,-2.46393744993864,126390,136083,976.4141586872588,967.9202158301158,4397,130.5789443519416,140.5931994955714,34060,"Morgantown, WV",Morgantown,WV,0.22701259,0.32971185,0.29491743,0.39385688,WV,180550.76166043532,-79.954208,39.630365
"Morristown, TN",0.43509151382924544,1.2797074954296161,0.166303042496872,0.166303042496872,0.5702716806981584,-0.030808503146868532,-0.6529119874640898,-0.18434802291146637,-0.18434802291146637,-0.01383238916798179,151254,159047,796.1127656370656,718.1837799227799,3829,210.6062601640252,221.45724318238007,34100,"Morristown, TN",Morristown,TN,0.19524617,0.2218056,0.23747069,0.25743532,TN,169312.530429344,-83.292875,36.214742
"Mount Vernon, WA",-0.797653569084277,-4.274465691788527,-0.9646622851112976,-0.9646622851112976,0.04154445672313943,-1.249657258232034,-1.221275911939579,-1.272589798343207,-1.272589798343207,-1.0344569724061718,112843,120353,1251.9349718146718,1216.2660818532818,6223,92.77821825636693,98.95285398127068,34580,"Mount Vernon-Anacortes, WA",Mount Vernon-Anacortes,WA,0.24356662,0.27726901,0.28708127,0.30309933,WA,376954.6104016287,-122.338802,48.416533
"Muncie, IN",-4.337321580236327,-1.053740779768177,-5.552761125724605,-5.552761125724605,-3.5721059098067998,-2.322033758544771,-0.2897787144362487,-3.2376538883345836,-3.2376538883345836,-1.9658126705861982,124647,121273,479.8199030888031,475.9784034749035,3796,261.8753268845992,254.78676997662197,34620,"Muncie, IN",Muncie,IN,0.27243227,0.34971789,0.32223454,0.39662257,IN,94087.4506195418,-85.385902,40.1926
"Muskegon, MI",-2.769815896814023,-4.174994448145681,-3.846599051923713,-3.846599051923713,-1.4655219931650314,-1.0652078050931542,0.4885631801021541,-1.5846516370852166,-1.5846516370852166,-0.565676331165252,144546,145136,306.790561003861,256.345872972973,4503,563.8709854136788,566.1725633293186,34740,"Muskegon, MI",Muskegon,MI,0.20719473,0.26593983,0.23267305,0.28115052,MI,144096.7955069037,-86.254601,43.239399
"Myrtle Beach, SC",7.954419448050041,4.575079872204473,10.454892343015178,10.454892343015178,4.928870074554338,1.9802884333152873,0.8626198083067093,2.6838583011003774,2.6838583011003774,0.8994788371349739,249828,306622,1006.566306949807,995.9084057915056,15650,250.8543943872502,307.8817270914687,34820,"Myrtle Beach-Conway-North Myrtle Beach, SC-NC",Myrtle Beach-Conway-North Myrtle Beach,SC-NC,0.18870682,0.24616851,0.23949762,0.29040796,SC,229783.06617287645,-78.88278,33.695092
"Napa, CA",-2.174495081776381,-2.1434766447775986,-2.574471800244456,-2.574471800244456,-2.50160060531983,-0.6652697747511785,-0.9912030727295253,-0.7927361620394622,-0.7927361620394622,-0.7304580641406205,166926,171810,843.7646247104248,803.41908996139,8071,207.76952164283523,213.84854075132407,34900,"Napa, CA",Napa,CA,0.2240888,0.31304055,0.26811585,0.36613354,CA,710396.7664771916,-122.288,38.297699
"Naples, FL",9.105280801736154,18.608527340179577,10.025054254812355,10.025054254812355,-2.124318506625263,2.053390264128306,4.516371847948815,2.1900594597455756,2.1900594597455756,-1.151084214055084,247311,283385,678.2641366795367,562.3791571428571,18599,439.75847408081904,503.9038100909094,34940,"Naples-Immokalee-Marco Island, FL",Naples-Immokalee-Marco Island,FL,0.2173913,0.28339964,0.2681154,0.3334007,FL,400995.43077637383,-81.795354,26.139248
"Nashville, TN",-0.8882674718484717,-0.7594662037539329,-1.3361282041580858,-1.3361282041580858,-0.8080241102784349,-0.17336180156228911,0.40821308451773897,-0.30135024561470874,-0.30135024561470874,-0.1548397589198035,1563416,1770863,5816.075346332046,5743.691495752896,73736,272.197070674156,308.31443529121356,34980,"Nashville-Davidson--Murfreesboro--Franklin, TN",Nashville-Davidson--Murfreesboro--Franklin,TN,0.30752152,0.40069273,0.36409286,0.45780593,TN,289489.3877058267,-86.784476,36.16775
"New Haven, CT",-0.8920266119672235,-4.0163984957770795,-0.8890019792140516,-0.8890019792140516,-1.0120517212200792,-0.47325900578401,-1.051106590222551,-0.5056297777495053,-0.5056297777495053,-0.4647372230270573,838178,833159,621.0014416988417,594.7465822393823,32442,1409.3027602513198,1400.86387190815,75700,"New Haven, CT",New Haven,CT,0.30614942,0.37781811,0.37195748,0.44189078,CT,245893.4098247619,-72.925003,41.305099
"New Orleans, LA",-2.8742255975778854,-4.45225660929467,-3.3303904981193844,-3.3303904981193844,-2.8009515449884876,-0.5954364852200977,-1.349291824998476,-0.7023114401658842,-0.7023114401658842,-0.6207092487289411,1109797,1179135,2287.6630814671817,1646.2201602316602,49211,674.148590091271,716.2681082912198,35380,"New Orleans-Metairie, LA",New Orleans-Metairie,LA,0.27050275,0.35226095,0.32029042,0.40050876,LA,222052.6974251069,-90.070801,29.952499
"New York, NY",-3.4819548149679775,-4.018622479630442,-3.9267357616175578,-3.9267357616175578,-2.7674562429617864,-0.702375803947947,-0.6232239825966168,-0.7895604348432765,-0.7895604348432765,-0.7047703609492127,18929284,19335518,7054.35877027027,6593.158934749034,1023709,2871.0492477640437,2932.6637187665488,35620,"New York-Newark-Jersey City, NY-NJ-PA",New York-Newark-Jersey City,NY-NJ-PA,0.35236636,0.4659619,0.41956478,0.53913975,NY,490789.05649927666,-73.980797,40.756699
"Niles, MI",-2.090207178387794,-1.5900621118012424,-2.845395012310114,-2.845395012310114,-1.2728825765823102,-1.4386922806371112,-0.5714285714285714,-1.778015978026027,-1.778015978026027,-1.0559900849146666,121027,119414,517.0300922779923,496.5470718146718,4025,243.73721419340356,240.48878098020353,35660,"Niles-Benton Harbor, MI",Niles-Benton Harbor,MI,0.25128433,0.32533857,0.2792564,0.34913474,MI,168310.81733406492,-86.253824,41.82984
"Norwich, CT",-1.0040913396618094,-3.6387341472087233,-1.4806215611584739,-1.4806215611584739,-1.6107382550335572,-0.9472559808130279,-0.5807751570463435,-1.2532801257633472,-1.2532801257633472,-1.0383537900316424,254276,248085,630.6412938223938,592.3155799227799,8437,429.291426089366,418.83922761637103,76450,"Norwich-New London-Westerly, CT-RI",Norwich-New London-Westerly,CT-RI,0.27369434,0.34936818,0.32455757,0.39221317,CT,249287.35115106788,-72.074997,41.524502
"Ocala, FL",5.732304150394418,11.597686471869602,6.214974941325743,6.214974941325743,3.8479012624675435,1.2575240758657542,2.7266581536843684,1.253687003152049,1.253687003152049,0.7565859939783852,393904,424803,1835.192248262548,1735.4456034749037,13313,226.9757111437439,244.78036024258665,36100,"Ocala, FL",Ocala,FL,0.20209664,0.26949722,0.24289994,0.31606284,FL,168657.24015483054,-82.1353,29.1819
